{"results": [{"sheng":"Beijing","district":"huabei","lat":"39.90419989999999","lng":"116.4073963"},{"sheng":"Tianjin","district":"huabei","lat":"39.90419989999999","lng":"116.4073963"},{"sheng":"Hebei","district":"huabei","lat":"39.90419989999999","lng":"116.4073963"},{"sheng":"Shanxi","district":"huabei","lat":"39.90419989999999","lng":"116.4073963"},{"sheng":"Inner Mongolia","district":"huabei","lat":"39.90419989999999","lng":"116.4073963"},{"sheng":"Liaoning","district":"dongbei","lat":"41.9436543","lng":"122.5290376"},{"sheng":"Jilin","district":"dongbei","lat":"41.9436543","lng":"122.5290376"},{"sheng":"Heilongjiang","district":"dongbei","lat":"41.9436543","lng":"122.5290376"},{"sheng":"Shanghai","district":"huadong","lat":"31.2303904","lng":"121.4737021"},{"sheng":"Jiangsu","district":"huadong","lat":"31.2303904","lng":"121.4737021"},{"sheng":"Zhejiang","district":"huadong","lat":"31.2303904","lng":"121.4737021"},{"sheng":"Anhui","district":"huadong","lat":"31.2303904","lng":"121.4737021"},{"sheng":"Fujian","district":"huadong","lat":"31.2303904","lng":"121.4737021"},{"sheng":"Jiangxi","district":"huadong","lat":"31.2303904","lng":"121.4737021"},{"sheng":"Shandong","district":"huadong","lat":"31.2303904","lng":"121.4737021"},{"sheng":"Guangdong","district":"huanan","lat":"23.3790333","lng":"113.7632828"},{"sheng":"Guangxi","district":"huanan","lat":"23.3790333","lng":"113.7632828"},{"sheng":"Hainan","district":"huanan","lat":"23.3790333","lng":"113.7632828"},{"sheng":"Henan","district":"huazhong","lat":"34.2904302","lng":"113.3823545"},{"sheng":"Hubei","district":"huazhong","lat":"34.2904302","lng":"113.3823545"},{"sheng":"Hunan","district":"huazhong","lat":"34.2904302","lng":"113.3823545"},{"sheng":"Sichuan","district":"xinan","lat":"30.26380319999999","lng":"102.8054753"},{"sheng":"Chongqing","district":"xinan","lat":"30.26380319999999","lng":"102.8054753"},{"sheng":"Guizhou","district":"xinan","lat":"30.26380319999999","lng":"102.8054753"},{"sheng":"Yunnan","district":"xinan","lat":"30.26380319999999","lng":"102.8054753"},{"sheng":"Tibet","district":"xinan","lat":"30.26380319999999","lng":"102.8054753"},{"sheng":"Shaanxi","district":"xibei","lat":"35.3939908","lng":"109.1880047"},{"sheng":"Gansu","district":"xibei","lat":"35.3939908","lng":"109.1880047"},{"sheng":"Qinghai","district":"xibei","lat":"35.3939908","lng":"109.1880047"},{"sheng":"Ningxia","district":"xibei","lat":"35.3939908","lng":"109.1880047"},{"sheng":"Xinjiang","district":"xibei","lat":"35.3939908","lng":"109.1880047"},{"sheng":"Taiwan Province","district":"gangaotai","lat":"22.6158015","lng":"120.7120023"},{"sheng":"Hong Kong","district":"gangaotai","lat":"22.6158015","lng":"120.7120023"},{"sheng":"Macau","district":"gangaotai","lat":"22.6158015","lng":"120.7120023"}]}