{"results": [{"name":"Shizuo Akira","id":"5488723bdabfae8a11fb435b","location":{"lng":"135.5244676","lat":"34.8220139","country":"Japan","area":"Japan","city":"3162","univ-or-org":"Osaka University"}},{"name":"Walter C. Willett","id":"5433ec65dabfaeb4c6ad4210","location":{"lng":"-71.1027166","lat":"42.3354484","country":"United States","area":"Massachusetts","city":"456","univ-or-org":"Department of Nutrition|Harvard School of Public Health"}},{"name":"Eric J. Topol","id":"5408e6f8dabfae8faa662ca9","location":{"lng":"-117.242208","lat":"32.894423","country":"United States","area":"California","city":"2878","univ-or-org":"Department of Molecular Medicine,The Scripps Research Institute"}},{"name":"Eugene Braunwald","id":"53f7eb3ddabfae9060af82ea","location":{"lng":"-71.1041786","lat":"42.3356352","country":"United States","area":"Massachusetts","city":"456","univ-or-org":"Harvard Medical School"}},{"name":"Krzysztof Matyjaszewski","id":"54487214dabfae87b7e25ece","location":{"lng":"-79.94301279999999","lat":"40.4428081","country":"United States","area":"Pennsylvania","city":"2597","univ-or-org":"Carnegie Mellon University"}},{"name":"Ronald C. Kessler","id":"53f42d1cdabfaeb1a7b871f7","location":{"lng":"-71.1041786","lat":"42.3356352","country":"United States","area":"Massachusetts","city":"456","univ-or-org":"Department of Health Care Policy,Harvard Medical School"}},{"name":"Y. Liu","id":"5432960adabfaeb54215f5a2","location":{"lng":"116.251976","lat":"39.908506","country":"China","area":"Beijing","city":"0","univ-or-org":"Institute of High Energy Physics"}},{"name":"Jiawei Han","id":"53f42f36dabfaedce54dcd0c","location":{"lng":"-88.2249052","lat":"40.11380279999999","country":"United States","area":"Illinois","city":"669","univ-or-org":"Department of Computer Science,University of Illinois at Urbana-Champaign,USA"}},{"name":"Eugene V. Koonin","id":"53f497aedabfaeb6ce77b61a","location":{"lng":"-77.100911","lat":"39.0023443","country":"United States","area":"Maryland","city":"258","univ-or-org":"National Institutes of Health"}},{"name":"Younan Xia","id":"53f4cfb1dabfaee4dc8b65c6","location":{"lng":"-84.39628499999999","lat":"33.7756178","country":"United States","area":"Georgia","city":"205","univ-or-org":"Georgia Institute of Technology"}},{"name":"Richard A. Flavell","id":"53f497dfdabfaeb6ce77b832","location":{"lng":"-72.933784","lat":"41.3031149","country":"United States","area":"Connecticut","city":"2330","univ-or-org":"Immunobiology at Yale University School of Medicine"}},{"name":"Peer Bork","id":"53f48c03dabfaea7cd1cdc90","location":{"lng":"8.710757","lat":"49.38406","country":"Germany","area":"Germany","city":"1290","univ-or-org":"European Molecular Lab heidelburg Germany"}},{"name":"Philip S. Yu","id":"53f47977dabfae8a6845b643","location":{"lng":"-87.65048279999999","lat":"41.8708057","country":"United States","area":"Illinois","city":"669","univ-or-org":"Department of Computer Science,University of Illinois at Chicago"}},{"name":"George M. Whitesides","id":"5405a403dabfae8faa5ecd5d","location":{"lng":"-71.11666009999999","lat":"42.3770029","country":"United States","area":"Massachusetts","city":"523","univ-or-org":"Harvard University"}},{"name":"Meir J. Stampfer","id":"53f78bf3dabfae90ec104dbf","location":{"lng":"-71.1028455","lat":"42.3353","country":"United States","area":"Massachusetts","city":"456","univ-or-org":"Department of Epidemiology, Harvard School Of Public Health"}},{"name":"Scott Shenker","id":"53f4806adabfae963d25a0ee","location":{"lng":"-122.2712312","lat":"37.8701543","country":"United States","area":"California","city":"315","univ-or-org":"UC Berkeley Computer Science Division and the International Computer Science Institute"}},{"name":"Ronald M. Evans","id":"53f7b0abdabfae9060adcc18","location":{"lng":"-117.2453427","lat":"32.8873915","country":"United States","area":"California","city":"2878","univ-or-org":"Salk Institute for Biological Studies"}},{"name":"Guido Kroemer","id":"548d00c5dabfae9b40135631","location":{"lng":"2.3478839","lat":"48.7943524","country":"France","area":"France","city":"0","univ-or-org":"Institut Gustave Roussy"}},{"name":"Trevor W. Robbins","id":"54480413dabfae87b7dc3f9c","location":{"lng":"0.1230383","lat":"52.202133","country":"United Kingdom","area":"United Kingdom","city":"571","univ-or-org":"Department of Experimental Psychology|University of Cambridge"}},{"name":"Anil K. Jain","id":"53f48046dabfae963d259326","location":{"lng":"-84.4821719","lat":"42.701848","country":"United States","area":"Michigan","city":"142","univ-or-org":"Michigan State University"}},{"name":"Donald P. Schneider","id":"53f4482adabfaee4dc7d8185","location":{"lng":"-77.8599084","lat":"40.7982133","country":"United States","area":"Pennsylvania","city":"256","univ-or-org":"Pennsylvania State University"}},{"name":"Guido Kroemer","id":"548d00c5dabfaed7b5fa47d1","location":{"lng":"2.3478839","lat":"48.7943524","country":"France","area":"France","city":"0","univ-or-org":"Centre National de la Recherche Scientifique|Institut Gustave Roussy"}},{"name":"Terrence J. Sejnowski","id":"53f464eddabfaeb22f537249","location":{"lng":"-117.2340135","lat":"32.8800604","country":"United States","area":"California","city":"702","univ-or-org":"University of California,San Diego"}},{"name":"Thomas S. Huang","id":"53f48abedabfaea6fb77b490","location":{"lng":"-88.22750239999999","lat":"40.115768","country":"United States","area":"Illinois","city":"669","univ-or-org":"Beckman Institute, University of Illinois at Urbana-Champaign"}},{"name":"Donald G. Truhlar","id":"54082fefdabfae450f3fc3ee","location":{"lng":"-93.2277285","lat":"44.97399","country":"United States","area":"Minnesota","city":"2161","univ-or-org":"University of Minnesota"}},{"name":"Markus Antonietti","id":"53f7bb45dabfae90ec117d1a","location":{"lng":"12.969643","lat":"52.414899","country":"Germany","area":"Germany","city":"2639","univ-or-org":"Max Planck Institute of Colloids and Interfaces, Potsdam-Golm"}},{"name":"Daniel R. Weinberger","id":"53f7a4c6dabfae9467da7bce","location":{"lng":"-76.5906409","lat":"39.3001526","country":"United States","area":"Maryland","city":"258","univ-or-org":"Lieber Institute for Brain Development"}},{"name":"Tomaso Poggio","id":"53f48043dabfae963d259202","location":{"lng":"-71.09416","lat":"42.360091","country":"United States","area":"Massachusetts","city":"523","univ-or-org":"Massachusetts Institute of Technology"}},{"name":"Wil M. P. Van Der Aalst","id":"53f32320dabfae9a84461be7","location":{"lng":"5.4874617","lat":"51.4476234","country":"Netherlands","area":"Netherlands","city":"968","univ-or-org":"Department of Mathematics & Computer Science of the Eindhoven University of Technology"}},{"name":"Simon Baron-Cohen","id":"5408c35edabfae450f43e862","location":{"lng":"0.141792","lat":"52.173063","country":"United Kingdom","area":"United Kingdom","city":"571","univ-or-org":"Departments of  Psychiatry|University of Cambridge"}},{"name":"Donald F. Towsley","id":"5408952bdabfae8faa64e6b2","location":{"lng":"-72.531313","lat":"42.39508","country":"United States","area":"Massachusetts","city":"2174","univ-or-org":"Department of Computer Science,University of Massachusetts"}},{"name":"Eric S. Lander","id":"53f4278bdabfaeb1a7b5abb9","location":{"lng":"-71.0903191","lat":"42.3605963","country":"United States","area":"Massachusetts","city":"523","univ-or-org":"Department of Biology,Massachusetts Institute of Technology"}},{"name":"Robert M. Califf","id":"5405a32cdabfae450f3bfb19","location":{"lng":"-78.9371233","lat":"36.0070978","country":"United States","area":"North Carolina","city":"946","univ-or-org":"Duke University Medical Center"}},{"name":"Michael I. Jordan","id":"53f48cfedabfaea7cd1d0d8e","location":{"lng":"-122.2590219","lat":"37.8738176","country":"United States","area":"California","city":"315","univ-or-org":"UC Berkeley Berkeley Engineering"}},{"name":"Hector Garcia-Molina","id":"53f48ceddabfaea7cd1d0a3a","location":{"lng":"-122.173869","lat":"37.429422","country":"United States","area":"California","city":"2883","univ-or-org":"Departments of Computer Science and Electrical Engineering, Stanford University"}},{"name":"Terrie E. Moffitt","id":"5441041edabfae805a71e355","location":{"lng":"-78.9382286","lat":"36.0014258","country":"United States","area":"North Carolina","city":"946","univ-or-org":"Duke University"}},{"name":"Joseph Biederman","id":"53f47e52dabfaee4dc8a912a","location":{"lng":"-71.0682252","lat":"42.3625649","country":"United States","area":"Massachusetts","city":"456","univ-or-org":"Department of Psychiatry，Massachusetts General Hospital"}},{"name":"John C. Reed","id":"548cb837dabfae8a11fb4c72","location":{"lng":"-117.2419828","lat":"32.9014195","country":"United States","area":"California","city":"2878","univ-or-org":"The Burnham Institute"}},{"name":"Charles M. Lieber","id":"5405b098dabfae450f3c6858","location":{"lng":"-71.1171161","lat":"42.378222","country":"United States","area":"Massachusetts","city":"523","univ-or-org":"Department of Chemistry and Chemical Biology Harvard John A. Paulson School of Engineering and Applied Sciences Harvard University"}},{"name":"Takeo Kanade","id":"53f4963adabfaeb22f5724ea","location":{"lng":"-79.94301279999999","lat":"40.4428081","country":"United States","area":"Pennsylvania","city":"2597","univ-or-org":"Carnegie Mellon University"}},{"name":"Sebastian Thrun","id":"53f48525dabfaedf436905bf","location":{"lng":"-122.1733617","lat":"37.4300473","country":"United States","area":"California","city":"2883","univ-or-org":"Computer Science Department,Stanford University"}},{"name":"Avshalom Caspi","id":"53f47641dabfaefedbbadaa4","location":{"lng":"-78.9382286","lat":"36.0014258","country":"United States","area":"North Carolina","city":"946","univ-or-org":"Duke University"}},{"name":"H. Eugene Stanley","id":"544085e1dabfae805a6caf0e","location":{"lng":"-71.1053991","lat":"42.3504997","country":"United States","area":"Massachusetts","city":"456","univ-or-org":"Center for Polymer Studies and Department of Physics,Boston University"}},{"name":"Robert A. Weinberg","id":"543267a6dabfaeb542152807","location":{"lng":"-71.0895627","lat":"42.3634542","country":"United States","area":"Massachusetts","city":"523","univ-or-org":"Whitehead Institute,Massachusetts Institute of Technology"}},{"name":"A. Beretvas","id":"5405755bdabfae8faa5d3ab7","location":{"lng":"-88.2795651","lat":"41.840644","country":"United States","area":"Illinois","city":"3128","univ-or-org":"Fermi National Accelerator Laboratory, Batavia, USA"}},{"name":"Andrew Zisserman","id":"53f46ca8dabfaec09f2584aa","location":{"lng":"-1.2543668","lat":"51.7548164","country":"United Kingdom","area":"United Kingdom","city":"2493","univ-or-org":"University of Oxford"}},{"name":"Hongjie Dai","id":"53f43293dabfaeb2ac02c361","location":{"lng":"-122.169719","lat":"37.4274745","country":"United States","area":"California","city":"123","univ-or-org":"Stanford University"}},{"name":"Ralph Weissleder","id":"54882ee7dabfaed7b5fa35e4","location":{"lng":"-71.1041786","lat":"42.3356352","country":"United States","area":"Massachusetts","city":"456","univ-or-org":"Systems Biology at Harvard Medical School"}},{"name":"Geoffrey Hinton","id":"53f366a7dabfae4b3499c6fe","location":{"lng":"-79.39565640000001","lat":"43.6628917","country":"Canada","area":"Canada","city":"2449","univ-or-org":"University of Toronto&Google Inc."}},{"name":"Craig B. Thompson","id":"54339d72dabfaebba581b1fd","location":{"lng":"-73.63314","lat":"40.687898","country":"United States","area":"New York","city":"2333","univ-or-org":"Memorial Sloan-Kettering Cancer Center"}},{"name":"David Haussler","id":"53f4805adabfae963d2599e6","location":{"lng":"-122.0608718","lat":"36.9913856","country":"United States","area":"California","city":"955","univ-or-org":"Biomolecular Engineering,University of California,Santa Cruz"}},{"name":"Chad A. Mirkin","id":"53f85e11dabfae7f97a6170b","location":{"lng":"-87.67526699999999","lat":"42.0564594","country":"United States","area":"Illinois","city":"669","univ-or-org":"Northwestern University"}},{"name":"Deborah Estrin","id":"53f4af53dabfaecfb077b3ba","location":{"lng":"-74.00218100000001","lat":"40.740914","country":"United States","area":"New York","city":"2333","univ-or-org":"Computer Science,Cornell Tech"}},{"name":"Frank B. Hu","id":"54862fa5dabfae8a11fb309c","location":{"lng":"-71.1027166","lat":"42.3354484","country":"United States","area":"Massachusetts","city":"456","univ-or-org":"Department of Nutrition|Harvard School of Public Health"}},{"name":"Harlan M. Krumholz","id":"53f7d7e5dabfae9467db9684","location":{"lng":"-72.933826","lat":"41.30322899999999","country":"United States","area":"Connecticut","city":"2330","univ-or-org":"Yale School of Medicine"}},{"name":"George P. Chrousos","id":"53f3ac02dabfae4b34afd10c","location":{"lng":"23.7786871","lat":"37.968196","country":"Greece","area":"Greece","city":"202","univ-or-org":"University of Athens"}},{"name":"Herbert W. Marsh","id":"543102e8dabfae8f2912470e","location":{"lng":"-1.2543668","lat":"51.7548164","country":"United Kingdom","area":"United Kingdom","city":"2493","univ-or-org":"Oxford University"}},{"name":"Alexei V. Filippenko","id":"53f55c88dabfae4ee4f8045b","location":{"lng":"-122.2585399","lat":"37.8718992","country":"United States","area":"California","city":"315","univ-or-org":"University of California,Berkeley"}},{"name":"Jeffrey D. Ullman","id":"53f48c0fdabfaea7cd1cdf72","location":{"lng":"-122.169719","lat":"37.4274745","country":"United States","area":"California","city":"123","univ-or-org":"Stanford University"}},{"name":"Ian T. Foster","id":"53f48850dabfaee4dc8b2045","location":{"lng":"-87.60091480000001","lat":"41.7895697","country":"United States","area":"Illinois","city":"669","univ-or-org":"University of Chicago and Argonne National Laboratory"}},{"name":"J. Fraser Stoddart","id":"54483285dabfae87b7de41c4","location":{"lng":"-87.6758222","lat":"42.0574635","country":"United States","area":"Illinois","city":"669","univ-or-org":"Chemistry Northwestern University"}},{"name":"Roy F. Baumeister","id":"54096170dabfae8faa6886a7","location":{"lng":"-84.2984889","lat":"30.4418778","country":"United States","area":"Florida","city":"1882","univ-or-org":"Florida State University Case Western Reserve University"}},{"name":"Bert Vogelstein","id":"540958f0dabfae8faa683ef7","location":{"lng":"-76.6205177","lat":"39.3299013","country":"United States","area":"Maryland","city":"258","univ-or-org":"Johns Hopkins;Howard Hughes Medical Institute"}},{"name":"Daphne Koller","id":"53f49405dabfaeb361f8045b","location":{"lng":"-122.1733617","lat":"37.4300473","country":"United States","area":"California","city":"2883","univ-or-org":"Computer Science Department,Stanford University"}},{"name":"Hongjiang Zhang","id":"53f4384cdabfaeb22f4830d6","location":{"lng":"116.3227106","lat":"40.0368464","country":"China","area":"Beijing","city":"0","univ-or-org":"Kingsoft"}},{"name":"A.Paul Alivisatos","id":"548a1e2ddabfae8a11fb48eb","location":{"lng":"-122.2590219","lat":"37.8738176","country":"United States","area":"California","city":"315","univ-or-org":"UC Berkeley Berkeley Engineering"}},{"name":"Robert J. Sternberg","id":"54869adcdabfae8a11fb33c1","location":{"lng":"-72.92234309999999","lat":"41.3163244","country":"United States","area":"Connecticut","city":"2330","univ-or-org":"Yale University"}},{"name":"Gordon H. Guyatt","id":"53f641badabfaee6d83fa719","location":{"lng":"-79.9192254","lat":"43.260879","country":"Canada","area":"Canada","city":"2449","univ-or-org":"Department of Medicine, McMaster University, Hamilton, Ontario, Canada"}},{"name":"Daniel L. Schacter","id":"54106b20dabfae44f08a85ec","location":{"lng":"-71.1134138","lat":"42.3771389","country":"United States","area":"Massachusetts","city":"523","univ-or-org":"Department of Psychology,Harvard University"}},{"name":"Alberto Mantovani","id":"5405e538dabfae91d3019b4e","location":{"lng":"9.167498","lat":"45.372027","country":"Italy","area":"Italy","city":"0","univ-or-org":"Humanitas Clinical and Research Center"}},{"name":"Daron Acemoglu","id":"53f7c12ddabfae90ec11ac36","location":{"lng":"-71.08371439999999","lat":"42.360809","country":"United States","area":"Massachusetts","city":"523","univ-or-org":"Department of Economics,Massachusetts Institute of Technology"}},{"name":"Craig J. Hawker","id":"5485de40dabfaed7b5fa25b7","location":{"lng":"-122.2573506","lat":"37.8744131","country":"United States","area":"California","city":"315","univ-or-org":"Materials Department ，University of California"}},{"name":"Stephen R. Forrest","id":"53f59e71dabfaef21cf8045b","location":{"lng":"-83.7382241","lat":"42.2780436","country":"United States","area":"Michigan","city":"142","univ-or-org":"University of Michigan"}},{"name":"Christos Faloutsos","id":"53f4718edabfaeb22f559444","location":{"lng":"-79.94301279999999","lat":"40.4428081","country":"United States","area":"Pennsylvania","city":"2597","univ-or-org":"Department of Computer Science,Carnegie Mellon University"}},{"name":"Lily Yeh Jan","id":"5448c80ddabfae87b7e790fc","location":{"lng":"-122.4575489","lat":"37.7631333","country":"United States","area":"California","city":"2882","univ-or-org":"University of California,San Francisco"}},{"name":"Robert Plomin","id":"54489000dabfae87b7e43ea2","location":{"lng":"-0.115997","lat":"51.5114864","country":"United Kingdom","area":"United Kingdom","city":"1942","univ-or-org":"King's College London"}},{"name":"Robert J. Tibshirani","id":"53f4727ddabfaee4dc87e140","location":{"lng":"-122.1786405","lat":"37.4325458","country":"United States","area":"California","city":"2883","univ-or-org":"Health Research and Policy,and Statistics,Stanford University"}},{"name":"Dennis S. Charney","id":"54408e8bdabfae7d84b80ae4","location":{"lng":"-73.9528508","lat":"40.7895827","country":"United States","area":"New York","city":"2333","univ-or-org":"Mount Sinai School of Medicine"}},{"name":"Ronald A. Depinho","id":"5405514ddabfae8faa5c1885","location":{"lng":"-95.3971021","lat":"29.7070972","country":"United States","area":"Texas","city":"1346","univ-or-org":"The University of Texas MD Anderson Cancer Center"}},{"name":"Lewis C. Cantley","id":"53f559bedabfae4738f8045b","location":{"lng":"-73.9547899","lat":"40.7649911","country":"United States","area":"New York","city":"2333","univ-or-org":"Sandra and Edward Meyer Cancer Center,Weill Cornell Medical College"}},{"name":"Richard J. Davidson","id":"53f4ce53dabfaeedd277bab6","location":{"lng":"-89.39297719999999","lat":"43.0679572","country":"United States","area":"Washington","city":"2007","univ-or-org":"Center for Investigating Healthy Minds at the Waisman Center, University of Wisconsin-Madison"}},{"name":"Ben Shneiderman","id":"53f48d04dabfaea7cd1d0ef9","location":{"lng":"-76.9363082","lat":"38.9908416","country":"United States","area":"Maryland","city":"258","univ-or-org":"Dept. of Computer Science University of Maryland"}},{"name":"Ed Diener","id":"53f45fa4dabfaee0d9c14daa","location":{"lng":"-88.2299558","lat":"40.1074841","country":"United States","area":"Illinois","city":"669","univ-or-org":"Department of Psychology  ，    University of Illinois"}},{"name":"John R. Yates","id":"53f43178dabfaee43ebf9aea","location":{"lng":"-117.242208","lat":"32.894423","country":"United States","area":"California","city":"2878","univ-or-org":"Department of Cell Biology, The Scripps Research Institute, La Jolla, CA 92037, USA"}},{"name":"Teruo Okano","id":"54859057dabfae9b4013381a","location":{"lng":"139.7204096","lat":"35.6975862","country":"Japan","area":"Japan","city":"3341","univ-or-org":"Tokyo Women’s Medical University (TWMU) in Tokyo, Japan"}},{"name":"Randy H. Katz","id":"53f4db3cdabfaef7e077b457","location":{"lng":"-122.2585399","lat":"37.8718992","country":"United States","area":"California","city":"315","univ-or-org":"University of California,Berkeley"}},{"name":"Mark Gerstein","id":"53f48d2fdabfaea7cd1d1917","location":{"lng":"-95.4031995","lat":"29.7029537","country":"United States","area":"Texas","city":"1346","univ-or-org":"biomedical informatics"}},{"name":"Shree K. Nayar","id":"53f48082dabfae963d25a84d","location":{"lng":"-73.9598192","lat":"40.809057","country":"United States","area":"New York","city":"2333","univ-or-org":"Computer Science Department,Columbia University"}},{"name":"James J. Heckman","id":"53f439d3dabfaeecd697e64f","location":{"lng":"-87.5971513","lat":"41.7898858","country":"United States","area":"Illinois","city":"669","univ-or-org":"Department of Economics,University of Chicago"}},{"name":"Luc Van Gool","id":"54876d00dabfae8a11fb39ca","location":{"lng":"8.547669899999999","lat":"47.376313","country":"Switzerland","area":"Switzerland","city":"3747","univ-or-org":"ETH Zurich,Switzerland"}},{"name":"Jeanne Brooks-Gunn","id":"5448df54dabfae87b7e89b3a","location":{"lng":"-73.9600535","lat":"40.80999","country":"United States","area":"New York","city":"2333","univ-or-org":"National Center for Children and Families,Teachers College,Columbia University"}},{"name":"Carlo M. Croce","id":"54485379dabfae87b7e0b07d","location":{"lng":"-83.0192272","lat":"39.9965031","country":"United States","area":"Ohio","city":"755","univ-or-org":"Department of Molecular Virology,Immunology and Medical Genetics"}},{"name":"Adrian L. Harris","id":"54093b1edabfae450f46d070","location":{"lng":"-87.6045592","lat":"41.7882602","country":"United States","area":"Maryland","city":"669","univ-or-org":"Department of Oncology"}},{"name":"Andrei Shleifer","id":"53f475b6dabfaedd74ea6593","location":{"lng":"-71.1182463","lat":"42.3764181","country":"United States","area":"Massachusetts","city":"523","univ-or-org":"Department of Economics Harvard University"}},{"name":"Mark A. Smith","id":"54895d1bdabfaed7b5fa3bd6","location":{"lng":"-81.6083838","lat":"41.5043413","country":"United States","area":"Ohio","city":"727","univ-or-org":"Case Western Reserve University, Cleveland, OH, USA"}},{"name":"K. J. Friston","id":"54055003dabfae92b41c2274","location":{"lng":"-82.34896839999999","lat":"29.6379975","country":"United States","area":"Florida","city":"1882","univ-or-org":"Department of Cognitive Neurology|Institute of Neurology"}},{"name":"Frank E. Speizer","id":"53fa18d7dabfae9467e18be4","location":{"lng":"-71.1027166","lat":"42.3354484","country":"United States","area":"Massachusetts","city":"456","univ-or-org":"Department of Environmental Health,Harvard School Of Public Health"}},{"name":"Paul M. Thompson","id":"53f4e25ddabfaefc1777b3cd","location":{"lng":"-118.443361","lat":"34.06589400000001","country":"United States","area":"California","city":"1960","univ-or-org":"Lab of Neuro Imaging  UCLA School of Medicine"}},{"name":"Simon D. M. White","id":"53f43202dabfaec22ba53368","location":{"lng":"11.671462","lat":"48.2609911","country":"Germany","area":"Germany","city":"1585","univ-or-org":"Max-Planck-Institut fuer Astrophysik"}},{"name":"Alvaro Pascual-Leone","id":"54878019dabfaed7b5fa30b1","location":{"lng":"-71.1046635","lat":"42.3396705","country":"United States","area":"Massachusetts","city":"456","univ-or-org":"Berenson-Allen Center for Noninvasive Brain Stimulation, Beth Israel Deaconess Medical Center, Harvard Medical School, Boston, MA, USA"}},{"name":"Rajkumar Buyya","id":"5485d7bedabfaed7b5fa256f","location":{"lng":"144.9611738","lat":"-37.7963689","country":"Australia","area":"Australia","city":"2127","univ-or-org":"Department of Computing and Information Systems The University of Melbourne"}},{"name":"Christos H.Papadimitriou","id":"53f4808ddabfae963d25abed","location":{"lng":"-122.2590219","lat":"37.8738176","country":"United States","area":"California","city":"315","univ-or-org":"UC Berkeley Berkeley Engineering"}},{"name":"Yuh Nung Jan","id":"5631e15245cedb3399f4129f","location":{"lng":"-122.4575489","lat":"37.7631333","country":"United States","area":"California","city":"2882","univ-or-org":"Department of Physiology,University of California, San Francisco"}},{"name":"Herbert Alexander Simon","id":"56300a2f45cedb33998dc583","location":{"lng":"-79.94301279999999","lat":"40.4428081","country":"United States","area":"Pennsylvania","city":"2597","univ-or-org":"School of Computer Science and Psychology,Carnegie-Mellon University"}},{"name":"Klaus Schulten","id":"5487fc00dabfae8a11fb3fb7","location":{"lng":"-88.2271615","lat":"40.1019523","country":"United States","area":"Illinois","city":"669","univ-or-org":"University of Illinois"}},{"name":"Michael G. Rosenfeld","id":"54055c6fdabfae91d3fd98fe","location":{"lng":"-121.4525385","lat":"38.5529544","country":"United States","area":"California","city":"2819","univ-or-org":"Department and School of Medicine,University of California"}},{"name":"Diederick E. Grobbee","id":"53f42b81dabfaeb22f3eac33","location":{"lng":"5.1799357","lat":"52.0862805","country":"Netherlands","area":"Netherlands","city":"3453","univ-or-org":"Julius Center for Health Sciences and Primary Care, University Medical Center Utrecht, Utrecht, The Netherlands"}},{"name":"Martin A. Nowak","id":"5447f0a3dabfae87b7db3138","location":{"lng":"-71.12146369999999","lat":"42.3732383","country":"United States","area":"Massachusetts","city":"2022","univ-or-org":"Program for Evolutionary Dynamics Harvard University"}},{"name":"J. Nash","id":"5434bd5edabfaebba585e629","location":{"lng":"-0.1748772","lat":"51.49879970000001","country":"United Kingdom","area":"United Kingdom","city":"1942","univ-or-org":"Imperial College, London, United Kingdom"}},{"name":"Timothy A. Springer","id":"5432fb20dabfaeb54217052b","location":{"lng":"-71.11666009999999","lat":"42.3770029","country":"United States","area":"Massachusetts","city":"523","univ-or-org":"Harvard University"}},{"name":"James F. Sallis","id":"54093b09dabfae450f46cfd6","location":{"lng":"-117.2340822","lat":"32.8760605","country":"United States","area":"California","city":"2878","univ-or-org":"Family and Preventive Medicine,University of California,San Diego"}},{"name":"Alan J. Heeger","id":"5406acd3dabfae8faa618c48","location":{"lng":"-122.257256","lat":"37.8725797","country":"United States","area":"California","city":"315","univ-or-org":"Department of Physics,University of California"}},{"name":"Christof Koch","id":"53f480c8dabfaeb22f56ffb5","location":{"lng":"-118.125269","lat":"34.1376576","country":"United States","area":"California","city":"2541","univ-or-org":"Cognitive and Behavioral Biology,California Institute of Technology"}},{"name":"Arthur W. Toga","id":"53f44feddabfaee1c0b1303e","location":{"lng":"-118.446249","lat":"34.064436","country":"United States","area":"California","city":"1960","univ-or-org":"UCLA Neurology Laboratory of Neuro Imaging"}},{"name":"Alex (Sandy) Pentland","id":"53f43915dabfaee1c0ab7278","location":{"lng":"-71.09416","lat":"42.360091","country":"United States","area":"Massachusetts","city":"523","univ-or-org":"Massachusetts Institute of Technology"}},{"name":"Alan S. Perelson","id":"53f42f57dabfaee43ebde313","location":{"lng":"-106.287162","lat":"35.8440582","country":"United States","area":"New Mexico","city":"75","univ-or-org":"Los Alamos National Laboratory"}},{"name":"George Davey Smith","id":"54487eb5dabfae87b7e32842","location":{"lng":"-2.6029792","lat":"51.4584172","country":"United Kingdom","area":"United Kingdom","city":"494","univ-or-org":"School of Social and Community Medicine，University of Bristol"}},{"name":"Itamar Willner","id":"544097b2dabfae805a6d8a12","location":{"lng":"35.2414009","lat":"31.7945578","country":"","area":"","city":"0","univ-or-org":"Institute of Chemistry The Hebrew University of Jerusalem"}},{"name":"I. Yu","id":"54352b51dabfaebba58abe06","location":{"lng":"126.9753024","lat":"37.2930009","country":"South Korea","area":"South Korea","city":"3192","univ-or-org":"Sungkyunkwan University, Suwon, Korea"}},{"name":"Leonidas J. Guibas","id":"53f5669cdabfae631af8045b","location":{"lng":"-122.169719","lat":"37.4274745","country":"United States","area":"California","city":"123","univ-or-org":"Stanford University"}},{"name":"Mark J. Daly","id":"53f48bdadabfaee4dc8b2b40","location":{"lng":"-71.06883049999999","lat":"42.3631763","country":"United States","area":"Massachusetts","city":"456","univ-or-org":"Center for Human Genetic Research Massachusetts General Hospital"}},{"name":"Ion Stoica","id":"53f4806cdabfae963d25a184","location":{"lng":"-122.2585399","lat":"37.8718992","country":"United States","area":"California","city":"315","univ-or-org":"Computer Science Division,University of California,Berkeley"}},{"name":"C. Tully","id":"53f4360bdabfaee43ec2d0e3","location":{"lng":"-74.6514481","lat":"40.3439888","country":"United States","area":"New Jersey","city":"1249","univ-or-org":"Princeton University, Princeton, NJ 08544, USA"}},{"name":"Antonios G. Mikos","id":"53f43292dabfaee4dc75b9c2","location":{"lng":"-95.40183119999999","lat":"29.7173941","country":"United States","area":"Texas","city":"1346","univ-or-org":"Rice University"}},{"name":"John A. Rogers","id":"53f42d42dabfaee02ac5f2fe","location":{"lng":"-87.67526699999999","lat":"42.0564594","country":"United States","area":"Illinois","city":"669","univ-or-org":"Northwestern University"}},{"name":"Robert Endre Tarjan","id":"548d74c5dabfaed7b5fa4894","location":{"lng":"-74.65220699999999","lat":"40.350211","country":"United States","area":"New Jersey","city":"527","univ-or-org":"Department of Computer Science,Princeton University"}},{"name":"George Perry","id":"53f7d30ddabfae9060aed652","location":{"lng":"-81.6083838","lat":"41.5043413","country":"United States","area":"Ohio","city":"727","univ-or-org":"Institute of Pathology, Case Western Reserve University, 2085 Adelbert Road, Cleveland, OH 44106, USA"}},{"name":"Ernest E. Moore","id":"53f7b5d2dabfae9467dae4e1","location":{"lng":"-104.9915365","lat":"39.7277113","country":"United States","area":"Colorado","city":"742","univ-or-org":"Denver Health Medical Center, Denver, CO"}},{"name":"Alon Halevy","id":"53f47eb1dabfae9126cc3f93","location":{"lng":"-122.0816563","lat":"37.3906727","country":"United States","area":"California","city":"2883","univ-or-org":"Recruit Institute of Technology"}},{"name":"Karl J. Friston","id":"548d5e04dabfae8a11fb4fd2","location":{"lng":"-0.122513","lat":"51.522576","country":"United Kingdom","area":"United Kingdom","city":"1942","univ-or-org":"Institute of Neurology, University College London"}},{"name":"Salim Yusuf","id":"54843dbcdabfaed7b5fa18d8","location":{"lng":"-93.23162909999999","lat":"44.9723337","country":"United States","area":"Delaware","city":"2161","univ-or-org":"Department of Medicine"}},{"name":"J. I. Cirac","id":"54408060dabfae805a6c7330","location":{"lng":"11.666723","lat":"48.2596644","country":"Germany","area":"Germany","city":"1585","univ-or-org":"Max-Planck-Institut fur Quantenoptik"}},{"name":"G. Barbiellini","id":"5434eb61dabfaebba587e1b3","location":{"lng":"13.7942058","lat":"45.6583692","country":"Italy","area":"Italy","city":"3377","univ-or-org":"Dipartimento di Fisica Università di Trieste and INFN Via A. Valerio 2 I-34127 Trieste Italy"}},{"name":"W. T. Ford","id":"54092b5edabfae450f46747f","location":{"lng":"-105.2659417","lat":"40.00758099999999","country":"United States","area":"Colorado","city":"464","univ-or-org":"University of Colorado at Boulder, Boulder, USA"}},{"name":"Christopher K. Glass","id":"54088102dabfae450f422240","location":{"lng":"-117.2354179","lat":"32.8755572","country":"United States","area":"California","city":"2878","univ-or-org":"Department of Cellular and Molecular Medicine, School of Medicine, University of California, San Diego"}},{"name":"Menachem Elimelech","id":"54058107dabfae8faa5d9fd7","location":{"lng":"-72.9249246","lat":"41.3123167","country":"United States","area":"Connecticut","city":"2330","univ-or-org":"Department of Chemical Engineering,Environmental Engineering Program,Yale University"}},{"name":"Weihong Tan","id":"53f643efdabfaec7bc1b3a95","location":{"lng":"112.943822","lat":"28.179012","country":"China","area":"Hunan","city":"0","univ-or-org":"College of Chemistry and Chemical Engineering，Hunan University"}},{"name":"Yusuke Nakamura","id":"53f56403dabfae5f62f8045b","location":{"lng":"-87.5987133","lat":"41.7886079","country":"United States","area":"Illinois","city":"669","univ-or-org":"The University of Chicago"}},{"name":"Bharat B. Aggarwal","id":"53f43713dabfaeb2ac058df5","location":{"lng":"-95.39851399999999","lat":"29.709133","country":"United States","area":"Texas","city":"1346","univ-or-org":"The University of Texas MD Anderson Cancer Center Department of Experimental Therapeutics"}},{"name":"L. Dobrzynski","id":"53f42c6fdabfaeb2acfdc07a","location":{"lng":"2.2081661","lat":"48.71237989999999","country":"France","area":"France","city":"0","univ-or-org":"Laboratoire Leprince-Ringuet, Ecole Polytechnique, IN2P3-CNRS, Palaiseau, France"}},{"name":"Nicholas R. Jennings","id":"548d8a37dabfaed7b5fa4915","location":{"lng":"-0.1748772","lat":"51.49879970000001","country":"United Kingdom","area":"United Kingdom","city":"1942","univ-or-org":"Departments of Electrical and Electronic Engineering and Computing,Imperial College"}},{"name":"James L. Mcgaugh","id":"54481ca5dabfae87b7dd8acd","location":{"lng":"-117.8513003","lat":"33.6440191","country":"United States","area":"California","city":"1444","univ-or-org":"University of California, Irvine"}},{"name":"Evan E. Eichler","id":"54082dd6dabfae92b422bd49","location":{"lng":"-122.3084015","lat":"47.6499333","country":"United States","area":"Washington","city":"2992","univ-or-org":"University of Washington,School of Medicine"}},{"name":"Carl W. Cotman","id":"53f7fa10dabfae9060b0009f","location":{"lng":"-118.4460644","lat":"34.0645258","country":"United States","area":"California","city":"1960","univ-or-org":"Neurology School of Medicine，University of California"}},{"name":"Mihir Bellare","id":"53f64135dabfae8d529bf12c","location":{"lng":"-117.2340135","lat":"32.8800604","country":"United States","area":"California","city":"702","univ-or-org":"Department of Computer Science & Engineering,University of California, San Diego."}},{"name":"Richard D. Smith","id":"53f5aac6dabfae1e29f8045b","location":{"lng":"-119.2797231","lat":"46.345205","country":"United States","area":"Washington","city":"3548","univ-or-org":"Environmental Molecular Sciences Laboratory, Pacific Northwest National Laboratory, Richland, Washington USA"}},{"name":"Xiaodong Wang","id":"53f58f25dabfaedb01f8047b","location":{"lng":"116.278864","lat":"40.097416","country":"China","area":"Beijing","city":"341","univ-or-org":"National Institute of Biological Sciences"}},{"name":"Jon M. Kleinberg","id":"53f49f78dabfaec18e77c303","location":{"lng":"-76.4735027","lat":"42.4534492","country":"United States","area":"New York","city":"2333","univ-or-org":"Cornell University"}},{"name":"David J. Mooney","id":"54852d99dabfaed7b5fa1f7f","location":{"lng":"-71.11666009999999","lat":"42.3770029","country":"United States","area":"Massachusetts","city":"523","univ-or-org":"Harvard University"}},{"name":"Jean-Pierre Changeux","id":"543502c3dabfaebba588e6f1","location":{"lng":"2.3112783","lat":"48.8403549","country":"France","area":"France","city":"2539","univ-or-org":"Institut Pasteur"}},{"name":"Richard M. Ryan","id":"5406b6d6dabfae8faa61d519","location":{"lng":"-77.6260033","lat":"43.1305531","country":"United States","area":"New York","city":"2333","univ-or-org":"University of Rochester"}},{"name":"J. Freeman","id":"54056d89dabfae92b41d2546","location":{"lng":"-88.2795651","lat":"41.840644","country":"United States","area":"Illinois","city":"3128","univ-or-org":"Fermi National Accelerator Laboratory, Batavia, USA"}},{"name":"Kevin P. Campbell","id":"5405421edabfae91d3fccbf1","location":{"lng":"-91.5548998","lat":"41.6626963","country":"United States","area":"Iowa","city":"1329","univ-or-org":"Neurology and Internal Medicine,The University of Iowa"}},{"name":"Napoleone Ferrara","id":"53f816e6dabfae8faa4db788","location":{"lng":"-117.2340135","lat":"32.8800604","country":"United States","area":"California","city":"702","univ-or-org":"University of California,San Diego"}},{"name":"John R. Anderson","id":"53f4cd7edabfaeed21f80cd5","location":{"lng":"-79.94301279999999","lat":"40.4428081","country":"United States","area":"Pennsylvania","city":"2597","univ-or-org":"Carnegie Mellon University"}},{"name":"Jitendra Malik","id":"53f493fadabfaeb15c77b97d","location":{"lng":"-122.2590219","lat":"37.8738176","country":"United States","area":"California","city":"315","univ-or-org":"UC Berkeley Berkeley Engineering"}},{"name":"Rakesh Agrawal","id":"53f47eafdabfae9126cc3e3d","location":{"lng":"75.85772589999999","lat":"22.7195687","country":"India","area":"India","city":"1429","univ-or-org":"Data Insights Laboratories"}},{"name":"Raymond J. Dolan","id":"53f44b4bdabfaedd74e024c7","location":{"lng":"-0.1222335","lat":"51.522265","country":"United Kingdom","area":"United Kingdom","city":"1942","univ-or-org":"National Hospital for Neurology and Neurosurgery"}},{"name":"Gregory J. Hannon","id":"53f43a1edabfaeb22f493b8d","location":{"lng":"-73.4669315","lat":"40.8580545","country":"United States","area":"New York","city":"2333","univ-or-org":"Watson School of Biological Sciences,Cold Spring Harbor Laboratory"}},{"name":"Michael Gr?tzel","id":"53f438cfdabfaeecd6975c00","location":{"lng":"6.5667576","lat":"46.5190557","country":"Switzerland","area":"Switzerland","city":"1862","univ-or-org":"Institut de Chimie Physique, Ecole Polytechnique Fédérale, CH-1015 Lausanne, Switzerland"}},{"name":"David Botstein","id":"53f43895dabfaee43ec447ab","location":{"lng":"-74.6514481","lat":"40.3439888","country":"United States","area":"New Jersey","city":"1249","univ-or-org":"Princeton University"}},{"name":"Zhenan Bao","id":"5448af6bdabfae87b7e63624","location":{"lng":"-122.1754159","lat":"37.42907659999999","country":"United States","area":"California","city":"2883","univ-or-org":"Department of Chemical Engineering,Stanford University"}},{"name":"Ming T. Tsuang","id":"53f7ff49dabfae9060b029eb","location":{"lng":"-117.2340135","lat":"32.8800604","country":"United States","area":"California","city":"702","univ-or-org":"Department of Epidemiology,University of California,San Diego"}},{"name":"Jie Chen","id":"53f48d58dabfaea7cd1d2326","location":{"lng":"-117.3259401","lat":"33.975265","country":"United States","area":"California","city":"2777","univ-or-org":"Department of Electrical Engineering College of Engineering University of California"}},{"name":"Jennifer Widom","id":"53f48cf4dabfaea7cd1d0bb6","location":{"lng":"-122.1733617","lat":"37.4300473","country":"United States","area":"California","city":"2883","univ-or-org":"Department of Computer Science,  Stanford University"}},{"name":"James E. Gunn","id":"53f434dddabfaee0d9b578bc","location":{"lng":"-74.6514481","lat":"40.3439888","country":"United States","area":"New Jersey","city":"1249","univ-or-org":"Princeton University"}},{"name":"Michael A. Strauss","id":"548a6216dabfae8a11fb49ca","location":{"lng":"-74.6516625","lat":"40.3465565","country":"United States","area":"New Jersey","city":"1249","univ-or-org":"Department of Astrophysical Sciences"}},{"name":"Shaojun Dong","id":"548a2b2fdabfae9b40134f56","location":{"lng":"125.3248004","lat":"43.8586694","country":"China","area":"Jilin","city":"0","univ-or-org":"中国科学院长春应用化学研究所"}},{"name":"Robert H. Lupton","id":"5485f9d7dabfae9b40133b17","location":{"lng":"-74.6516625","lat":"40.3465565","country":"United States","area":"New Jersey","city":"1249","univ-or-org":"Astrophysical Sciences"}},{"name":"Roberto Romero","id":"5448699cdabfae87b7e1cefa","location":{"lng":"-77.1355004","lat":"39.0293183","country":"United States","area":"Maryland","city":"258","univ-or-org":"NICHD"}},{"name":"David W. Bates","id":"5434cf06dabfaebba5869bc4","location":{"lng":"-71.1041786","lat":"42.3356352","country":"United States","area":"Massachusetts","city":"456","univ-or-org":"Harvard Medical School"}},{"name":"Geoffrey Burnstock","id":"5432d3aedabfaeb542166885","location":{"lng":"-0.1340401","lat":"51.52455920000001","country":"United Kingdom","area":"United Kingdom","city":"1942","univ-or-org":"Autonomic Neuroscience Centre University College Medical School"}},{"name":"Ichiro Kawachi","id":"54093048dabfae92b4260b4f","location":{"lng":"-71.10284229999999","lat":"42.3352969","country":"United States","area":"Massachusetts","city":"456","univ-or-org":"Department of Social and Behavioral Sciences"}},{"name":"Nicholas G. Martin","id":"5408c774dabfae44f0885b41","location":{"lng":"153.027266","lat":"-27.449561","country":"Australia","area":"Australia","city":"493","univ-or-org":"Queensland Institute of Medical Research"}},{"name":"Jaakko Kaprio","id":"540840f0dabfae8faa638616","location":{"lng":"24.9510419","lat":"60.1726348","country":"Finland","area":"Finland","city":"1294","univ-or-org":"University of Helsinki"}},{"name":"David M. Fergusson","id":"5406af21dabfae44f084ebf1","location":{"lng":"172.6279519","lat":"-43.534828","country":"New Zealand","area":"New Zealand","city":"701","univ-or-org":"Christchurch Health and Development Study"}},{"name":"Lorenzo Moretta","id":"53f7d87ddabfae9467db98bd","location":{"lng":"8.9883124","lat":"44.3915996","country":"Italy","area":"Italy","city":"1118","univ-or-org":"Istituto Giannina Gaslini, Genova, Italy"}},{"name":"Paul Slovic","id":"53f7c6f5dabfae9060ae78ae","location":{"lng":"-123.091081","lat":"44.04646899999999","country":"United States","area":"Oregon","city":"1011","univ-or-org":"Decision Research"}},{"name":"James M. Tiedje","id":"53f4bf76dabfaeb22f577deb","location":{"lng":"-84.4821719","lat":"42.701848","country":"United States","area":"Michigan","city":"142","univ-or-org":"Michigan State University"}},{"name":"Patrick O. Brown","id":"53f49646dabfaeb4c477ba5d","location":{"lng":"-122.169719","lat":"37.4274745","country":"United States","area":"California","city":"123","univ-or-org":"Stanford University"}},{"name":"David A. Patterson","id":"53f48087dabfae963d25a9dc","location":{"lng":"-122.2585399","lat":"37.8718992","country":"United States","area":"California","city":"315","univ-or-org":"Computer Science,UC Berkeley"}},{"name":"Ian F. Akyildiz","id":"53f469d4dabfaee4dc85be38","location":{"lng":"-84.3895507","lat":"33.7775235","country":"United States","area":"Georgia","city":"205","univ-or-org":"Broadband Wireless Networking Lab School of Electrical and Computer Engineering  Georgia Institute of Technology"}},{"name":"Ferenc A. Jolesz","id":"53f46679dabfaefedbb88d78","location":{"lng":"-71.1066945","lat":"42.3359248","country":"United States","area":"Massachusetts","city":"456","univ-or-org":"Department of Radiology at Brigham"}},{"name":"Cass R. Sunstein","id":"53f45118dabfaee1c0b181e3","location":{"lng":"-71.1188478","lat":"42.3780901","country":"United States","area":"Massachusetts","city":"523","univ-or-org":"Harvard Law School"}},{"name":"Kenneth C. Anderson","id":"5486a9dbdabfaed7b5fa2b24","location":{"lng":"-71.1041786","lat":"42.3356352","country":"United States","area":"Massachusetts","city":"456","univ-or-org":"Harvard Medical School"}},{"name":"E. Halkiadakis","id":"54845adfdabfae8a11fb1fe6","location":{"lng":"-74.4650915","lat":"40.5231917","country":"United States","area":"New Jersey","city":"523","univ-or-org":"Department of Physics and Astronomy Rutgers University"}},{"name":"Matthias Mann","id":"5448938ddabfae87b7e47278","location":{"lng":"11.4595788","lat":"48.10503","country":"Germany","area":"Germany","city":"1585","univ-or-org":"Department of Proteomics and Signal Transduction, Max-Planck Institute for Biochemistry, Am Klopferspitz 18, D-82152 Martinsried, Germany"}},{"name":"James M. Tour","id":"5433909edabfaeb4c6ac172c","location":{"lng":"-95.40183119999999","lat":"29.7173941","country":"United States","area":"Texas","city":"1346","univ-or-org":"Rice University(Rice University),Houston,United States"}},{"name":"Jean Tirole","id":"5432bbb4dabfaeb4c6a97558","location":{"lng":"1.4311597","lat":"43.6053604","country":"France","area":"France","city":"3367","univ-or-org":"TOULOUSE SCHOOL OF ECONOMICS"}},{"name":"Dan R. Littman","id":"54328e80dabfaeb54215cc08","location":{"lng":"-73.9964609","lat":"40.72951339999999","country":"United States","area":"New York","city":"2333","univ-or-org":"New York University"}},{"name":"Kazunori Kataoka","id":"543035e1dabfaeca69bd6fce","location":{"lng":"-79.3947953","lat":"43.6591529","country":"Canada","area":"Canada","city":"2449","univ-or-org":"Department of Materials Science and Engineering,University of Tokyo"}},{"name":"Gerald M. Rubin","id":"540933ebdabfae450f46a613","location":{"lng":"-77.0477267","lat":"38.893023","country":"United States","area":"Washington","city":"3548","univ-or-org":"National Academy of Sciences"}},{"name":"William J. Sandborn","id":"540838abdabfae44f0871a7a","location":{"lng":"-117.236223","lat":"32.875846","country":"United States","area":"California","city":"2878","univ-or-org":"UC San Diego - Division of Gastroenterology"}},{"name":"Lotfi A. Zadeh","id":"5405bf45dabfae450f3cd80d","location":{"lng":"-122.2585399","lat":"37.8718992","country":"United States","area":"California","city":"315","univ-or-org":"Department of Electrical Engineering and Computer Sciences  University of California  Berkeley"}},{"name":"Richard E. Mayer","id":"53f64403dabfae02117cf527","location":{"lng":"-119.848947","lat":"34.4139629","country":"United States","area":"California","city":"2934","univ-or-org":"University of California , Santa Barbara"}},{"name":"Henri Prade","id":"53f566aedabfae6329f80468","location":{"lng":"-1.7100328","lat":"48.1269985","country":"France","area":"France","city":"2751","univ-or-org":"CNRS"}},{"name":"Janet M. Thornton","id":"53f4da30dabfaef7e777b3ba","location":{"lng":"-122.257168","lat":"37.851232","country":"United States","area":"California","city":"2414","univ-or-org":"EBI"}},{"name":"Eric B. Rimm","id":"53f46b94dabfaec09f253f52","location":{"lng":"-71.1027166","lat":"42.3354484","country":"United States","area":"Massachusetts","city":"456","univ-or-org":"Department of Epidemiology Department of Nutrition"}},{"name":"Rudolf Jaenisch","id":"53f439e4dabfaee2a1d069ba","location":{"lng":"-71.09416","lat":"42.360091","country":"United States","area":"Massachusetts","city":"523","univ-or-org":"Massachusetts Institute of Technology"}},{"name":"Mary T. Story","id":"53f43951dabfaedce554aca3","location":{"lng":"-78.9382286","lat":"36.0014258","country":"United States","area":"North Carolina","city":"946","univ-or-org":"Duke University"}},{"name":"R. S. J. Frackowiak","id":"548cd799dabfae8a11fb4cdb","location":{"lng":"6.6426073","lat":"46.5256057","country":"Switzerland","area":"Switzerland","city":"1862","univ-or-org":"Department of Clinical Neuroscience ,Service of Neurology CHUV University Hospital  Lausanne"}},{"name":"John D. E. Gabrieli","id":"54887a4edabfaed7b5fa388f","location":{"lng":"-71.09160899999999","lat":"42.3623628","country":"United States","area":"Massachusetts","city":"523","univ-or-org":"Department of Brain and Cognitive Sciences Harvard-MIT Division of Health Sciences and Technology"}},{"name":"Jun Wang","id":"542dfe07dabfaed7226824ce","location":{"lng":"114.1714086","lat":"22.3376213","country":"China","area":"Hong Kong","city":"1336","univ-or-org":"Department of Computer Science,College of Science and Engineering,City University of Hong Kong"}},{"name":"S. Das Sarma","id":"540fef48dabfae450f4b8339","location":{"lng":"-76.9400775","lat":"38.9884728","country":"United States","area":"Maryland","city":"258","univ-or-org":"Department of Physics|University of Maryland"}},{"name":"Vipin Kumar","id":"53f47eb6dabfae9126cc40d7","location":{"lng":"-93.2323048","lat":"44.974567","country":"United States","area":"Minnesota","city":"2161","univ-or-org":"Department of Computer Science and Engineering ,University of Minnesota"}},{"name":"Richard Szeliski","id":"53f4659cdabfaedf43642cc9","location":{"lng":"-122.1477459","lat":"37.4847086","country":"United States","area":"California","city":"646","univ-or-org":"Facebook"}},{"name":"Terence G. Langdon","id":"53f452a0dabfaee43ecae49c","location":{"lng":"-118.2874881","lat":"34.0200437","country":"United States","area":"California","city":"1960","univ-or-org":"University of Southern California Department of Aerospace and Mechanical Engineering"}},{"name":"William L. Jorgensen","id":"548c968bdabfae8a11fb4bd1","location":{"lng":"-72.9229866","lat":"41.3181911","country":"United States","area":"Connecticut","city":"2330","univ-or-org":"Department of Chemistry,Yale University"}},{"name":"Cumrun Vafa","id":"54864903dabfae8a11fb314a","location":{"lng":"-71.1175293","lat":"42.37725","country":"United States","area":"Massachusetts","city":"523","univ-or-org":"Jefferson Laboratory of Physics,Harvard University"}},{"name":"Kenneth W. Kinzler","id":"54855228dabfae9b401335de","location":{"lng":"-76.54828169999999","lat":"39.28939039999999","country":"United States","area":"Maryland","city":"258","univ-or-org":"The Johns Hopkins Oncology Center"}},{"name":"Patrick W. Serruys","id":"5447edb4dabfae87b7db06d0","location":{"lng":"-0.1703906","lat":"51.48986559999999","country":"United Kingdom","area":"United Kingdom","city":"1942","univ-or-org":"Cardiovascular Science Division of the National Heart and Lung Institute (NHLI) of Imperial College in London (UK)."}},{"name":"A. V. Gritsan","id":"5406a8afdabfae92b421c036","location":{"lng":"-76.62352469999999","lat":"39.3316414","country":"United States","area":"Maryland","city":"258","univ-or-org":"Johns Hopkins University, Physics and Astronomy Department"}},{"name":"Mihalis Yannakakis","id":"53f64fd4dabfae6a71b60632","location":{"lng":"-73.9598192","lat":"40.809057","country":"United States","area":"New York","city":"2333","univ-or-org":"Department of Computer Science,Columbia University"}},{"name":"Alex J. Smola","id":"53f4727edabfaeecd6a3b1a8","location":{"lng":"-79.94301279999999","lat":"40.4428081","country":"United States","area":"Pennsylvania","city":"2597","univ-or-org":"Carnegie Mellon University"}},{"name":"Amit P. Sheth","id":"53f44cb0dabfaedf435e5ce1","location":{"lng":"-84.0641158","lat":"39.7793746","country":"United States","area":"Ohio","city":"1271","univ-or-org":"Kno.e.sis Center/Computer Science & Engineering,Wright State University"}},{"name":"Thomas A. Henzinger","id":"53f4346bdabfaee43ec1cc0a","location":{"lng":"16.259696","lat":"48.309852","country":"Austria","area":"Austria","city":"0","univ-or-org":"Institute of Science and Technology,Austria"}},{"name":"Marcus E. Raichle","id":"53f4317ddabfaee02ac94d7c","location":{"lng":"-90.26268170000002","lat":"38.6351676","country":"United States","area":"Missouri","city":"2838","univ-or-org":"Washington University,School of Medicine"}},{"name":"George M. Church","id":"53f42b2fdabfaeb2acfc6e5c","location":{"lng":"-71.1041786","lat":"42.3356352","country":"United States","area":"Massachusetts","city":"456","univ-or-org":"Harvard Medical School"}},{"name":"Alessandro Sette","id":"548453bfdabfaed7b5fa196b","location":{"lng":"-117.2201385","lat":"32.8773732","country":"United States","area":"California","city":"2878","univ-or-org":"La Jolla Institute for Allergy and Immunology"}},{"name":"John E. Morley","id":"5434505bdabfaebba58569e0","location":{"lng":"-90.2379054","lat":"38.6221129","country":"United States","area":"Missouri","city":"2838","univ-or-org":"St. Louis University School of Medicine"}},{"name":"Bruce D. Hammock","id":"54323d95dabfaeb4ea4e7849","location":{"lng":"-121.4525136","lat":"38.5539038","country":"United States","area":"California","city":"2819","univ-or-org":"UCD Cancer Research Center"}},{"name":"Shlomo Havlin","id":"54312baadabfae8f29133ee8","location":{"lng":"34.8430876","lat":"32.0691989","country":"Israel","area":"Israel","city":"2723","univ-or-org":"Bar-Ilan University"}},{"name":"R. Clare","id":"5408496bdabfae450f4085c3","location":{"lng":"-71.09416","lat":"42.360091","country":"United States","area":"Massachusetts","city":"523","univ-or-org":"Massachusetts Institute of Technology, Cambridge, MA 02139, USA"}},{"name":"Dan Boneh","id":"54067e83dabfae92b420b122","location":{"lng":"-122.173869","lat":"37.429422","country":"United States","area":"California","city":"2883","univ-or-org":"Computer Science and Electrical Engineering,Stanford University."}},{"name":"Fred H. Gage","id":"5405b81ddabfae8faa5f7a38","location":{"lng":"-117.2453427","lat":"32.8873915","country":"United States","area":"California","city":"2878","univ-or-org":"Laboratory of Genetics,The Salk Institute for Biological Studies - LOGG"}},{"name":"Alan C. Evans","id":"53fa14a4dabfae9467e17040","location":{"lng":"-73.58137289999999","lat":"45.5089963","country":"Canada","area":"Canada","city":"2694","univ-or-org":"McConnell Brain Imaging Centre|Montreal Neurological Institute|McGill University"}},{"name":"A. Pompili","id":"53f7cc68dabfae7f97a2bb00","location":{"lng":"16.8839935","lat":"41.1084008","country":"Italy","area":"Italy","city":"288","univ-or-org":"Dipartimento di Fisica (interateneo)"}},{"name":"Paul Tempst","id":"53f64224dabfae10ab9bf1c1","location":{"lng":"-73.63314","lat":"40.687898","country":"United States","area":"New York","city":"2333","univ-or-org":"Memorial Sloan Kettering Cancer Center"}},{"name":"Moshe Y. Vardi","id":"53f4b415dabfaed31c77b3ba","location":{"lng":"-95.40183119999999","lat":"29.7173941","country":"United States","area":"Texas","city":"1346","univ-or-org":"Rice University"}},{"name":"Shih-Fu Chang","id":"53f49da0dabfaebfa777b6e1","location":{"lng":"-73.9599676","lat":"40.80937979999999","country":"United States","area":"New York","city":"2333","univ-or-org":"Electrical Engineering Department Computer Science Department Columbia University"}},{"name":"Ronald N. Jones","id":"53f47eb6dabfaee1c0bab6cb","location":{"lng":"-71.06226339999999","lat":"42.3500608","country":"United States","area":"Massachusetts","city":"456","univ-or-org":"Tufts University School of Medicine, Boston, MA 02111, USA"}},{"name":"Carlos S. Frenk","id":"53f472a9dabfaee4dc87ec9f","location":{"lng":"-1.57428","lat":"54.766706","country":"United Kingdom","area":"United Kingdom","city":"421","univ-or-org":"Institute for Computational Cosmology， Ogden Centre, Physics Department  ， University of Durham"}},{"name":"J. Brinkmann","id":"53f45fb2dabfaee02ad7a529","location":{"lng":"-105.8197491","lat":"32.7802079","country":"United States","area":"New Mexico","city":"75","univ-or-org":"Apache Point Observatory"}},{"name":"W. Bruce Croft","id":"53f459c4dabfaee2a1d80cdf","location":{"lng":"-72.531313","lat":"42.39508","country":"United States","area":"Massachusetts","city":"2174","univ-or-org":"College of Information and Computer Sciences, University of Massachusetts, Amherst"}},{"name":"Richard J. Johnson","id":"53f43bf0dabfaee1c0ad1b33","location":{"lng":"-105.0023325","lat":"39.7463895","country":"United States","area":"Colorado","city":"742","univ-or-org":"University of Colorado Denver"}},{"name":"K. F. Johnson","id":"53f42c7fdabfaec22ba0a269","location":{"lng":"-84.2984889","lat":"30.4418778","country":"United States","area":"Florida","city":"1882","univ-or-org":"Florida State University, Tallahassee, USA"}},{"name":"Kenneth S. Suslick","id":"54891d80dabfae8a11fb440b","location":{"lng":"-88.2260672","lat":"40.1084139","country":"United States","area":"Illinois","city":"669","univ-or-org":"Department of Chemistry|University of Illinois at Urbana-Champaign"}},{"name":"Amir Pnueli","id":"5484b6dcdabfae9b40133075","location":{"lng":"-73.9956593","lat":"40.7286679","country":"United States","area":"New York","city":"2333","univ-or-org":"Computer Science Department Courant,Institute of mathematical Sciences,New York University"}},{"name":"Dongyuan Zhao","id":"54592c58dabfaeb0fe337c4b","location":{"lng":"121.50501","lat":"31.300519","country":"China","area":"Beijing","city":"0","univ-or-org":"复旦大学先进材料实验室"}},{"name":"P. J. Barnes","id":"540889acdabfae92b42481eb","location":{"lng":"-0.1748772","lat":"51.49879970000001","country":"United Kingdom","area":"United Kingdom","city":"1942","univ-or-org":"Imperial College"}},{"name":"Pier Paolo Pandolfi","id":"54083251dabfae450f3fd666","location":{"lng":"-71.1041786","lat":"42.3356352","country":"United States","area":"Massachusetts","city":"456","univ-or-org":"Harvard Medical School"}},{"name":"Jinde Cao","id":"53f7c18edabfae9467db1f27","location":{"lng":"118.794211","lat":"32.055982","country":"China","area":"Jiangsu","city":"0","univ-or-org":"东南大学"}},{"name":"Tom Maniatis","id":"53f4e5e1dabfaefd3b77b408","location":{"lng":"-71.1145019","lat":"42.3776209","country":"United States","area":"Massachusetts","city":"523","univ-or-org":"Department of Biochemistry and Molecular Biology Harvard University 7 Divinity Avenue Cambridge, Massachusetts 02138 USA"}},{"name":"John A. Stankovic","id":"53f4ab6ddabfaecc2177b556","location":{"lng":"-78.5101835","lat":"38.0323358","country":"United States","area":"Virginia","city":"2764","univ-or-org":"Department of Computer Science School of Engineering and Applied Science University of Virginia"}},{"name":"Rama Chellappa","id":"53f4997cdabfaebbd777b5a6","location":{"lng":"-123.2786904","lat":"44.56723059999999","country":"United States","area":"Oregon","city":"1011","univ-or-org":"Department of Electrical and Computer Engineering Department of Computer Science"}},{"name":"Clifford J. Woolf","id":"53f46577dabfaeecd6a09680","location":{"lng":"-71.06883049999999","lat":"42.3631763","country":"United States","area":"Massachusetts","city":"456","univ-or-org":"Massachusetts General Hospital and Harvard Medical School"}},{"name":"Robert E. Kraut","id":"53f44c41dabfaeb22f4d80f6","location":{"lng":"-79.943168","lat":"40.443562","country":"United States","area":"Pennsylvania","city":"2597","univ-or-org":"Human-Computer Interaction Institute,Carnegie Mellon University"}},{"name":"John D. Minna","id":"53f44781dabfaedce557c13a","location":{"lng":"-96.8431548","lat":"32.8195738","country":"United States","area":"Texas","city":"832","univ-or-org":"Hamon Center for Therapeutic Oncology Research NB8.206, University of Texas Southwestern Medical Center, 6000 Harry Hines Blvd., Dallas, TX 75390, USA"}},{"name":"Pamela S. Soltis","id":"53f433fadabfaee1c0a85f0d","location":{"lng":"-82.3704006","lat":"29.6358224","country":"United States","area":"Florida","city":"1882","univ-or-org":"Florida Museum of Natural History,University of Florida"}},{"name":"Paolo Boffetta","id":"5487f5e1dabfae8a11fb3f3d","location":{"lng":"-73.1940614","lat":"44.4796042","country":"United States","area":"Vermont","city":"522","univ-or-org":"Medicine, Hematology and Medical Oncology"}},{"name":"John C. Gore","id":"5487c063dabfae8a11fb3d4d","location":{"lng":"-72.9357954","lat":"41.3045436","country":"United States","area":"Connecticut","city":"2330","univ-or-org":"Department of Diagnostic Radiology, Yale University, New Haven, Connecticut 06510, USA"}},{"name":"Karen A. Matthews","id":"54861334dabfae8a11fb2f93","location":{"lng":"-79.9596871","lat":"40.4436262","country":"United States","area":"Pennsylvania","city":"2597","univ-or-org":"Department of Psychiatry|University of Pittsburgh"}},{"name":"Richard A. Young","id":"54849cbbdabfae9b40132fb1","location":{"lng":"-71.0903191","lat":"42.3605963","country":"United States","area":"Massachusetts","city":"523","univ-or-org":"Department of Biology,Massachusetts Institute of Technology,Cambridge"}},{"name":"Hans-Peter Seidel","id":"5448ebcbdabfae87b7e953ca","location":{"lng":"7.0457956","lat":"49.2578657","country":"Germany","area":"Germany","city":"2815","univ-or-org":"Max Planck Institute for Informatics?and Saarland University"}},{"name":"Christopher M. Dobson","id":"54084eb3dabfae450f40aabf","location":{"lng":"0.125505","lat":"52.197861","country":"United Kingdom","area":"United Kingdom","city":"571","univ-or-org":"Department of Chemistry  University of Cambridge"}},{"name":"Martin Ravallion","id":"5405a669dabfae92b41ef1de","location":{"lng":"-77.07225849999999","lat":"38.9076089","country":"United States","area":"Washington","city":"3548","univ-or-org":"Georgetown University"}},{"name":"Ted M. Dawson","id":"540536fedabfae8faa5b3deb","location":{"lng":"-76.6205177","lat":"39.3299013","country":"United States","area":"Maryland","city":"258","univ-or-org":"Johns Hopkins University Institute for Cell Engineering"}},{"name":"Larry S. Davis","id":"53f49c81dabfaee1c0badc66","location":{"lng":"-76.9363082","lat":"38.9908416","country":"United States","area":"Maryland","city":"258","univ-or-org":"University of Maryland Department of Computer Science"}},{"name":"Christopher D. Manning","id":"53f492a9dabfaeb15b77b5f5","location":{"lng":"-122.1704363","lat":"37.42848070000001","country":"United States","area":"California","city":"2883","univ-or-org":"Depts of Linguistics and Computer Science,Stanford University"}},{"name":"Bernhard Sch?lkopf","id":"53f48dbbdabfaea7cd1d41ee","location":{"lng":"9.0805141","lat":"48.7468939","country":"Germany","area":"Germany","city":"3154","univ-or-org":"Max Planck Institute for Intelligent Systems"}},{"name":"George Karypis","id":"53f4804edabfae963d2596a2","location":{"lng":"-93.2323048","lat":"44.974567","country":"United States","area":"Minnesota","city":"2161","univ-or-org":"Department of Computer Science & Engineering, University of Minnesota"}},{"name":"Robert C. Malenka","id":"53f476b4dabfaefedbbaf746","location":{"lng":"-122.175758","lat":"37.4318102","country":"United States","area":"California","city":"2883","univ-or-org":"Stanford Neurosciences Institute"}},{"name":"Prashant V. Kamat","id":"53f46ab2dabfaedd74e7b2c3","location":{"lng":"-86.2353388","lat":"41.7055716","country":"United States","area":"Indiana","city":"1428","univ-or-org":"Radiation Laboratory, University of Notre Dame, Notre Dame, IN 46556, USA"}},{"name":"Douglas F. Easton","id":"53f442dcdabfaeb2ac08dcf6","location":{"lng":"0.1437284","lat":"52.1731852","country":"United Kingdom","area":"United Kingdom","city":"571","univ-or-org":"Department of Public Health and Primary Care, University of Cambridge"}},{"name":"Pasko Rakic","id":"53f43324dabfaeb1a7bd3364","location":{"lng":"-72.933826","lat":"41.30322899999999","country":"United States","area":"Connecticut","city":"2330","univ-or-org":"Yale University School of Medicine"}},{"name":"Jennifer Rexford","id":"53f3a5f2dabfae4b34ad8dfa","location":{"lng":"-74.65220699999999","lat":"40.350211","country":"United States","area":"New Jersey","city":"527","univ-or-org":"Department of Computer Science,Princeton University"}},{"name":"Adrian Perrig","id":"560aca0f45cedb33971b3bbb","location":{"lng":"8.548418999999999","lat":"47.3785788","country":"Switzerland","area":"Switzerland","city":"3747","univ-or-org":"Dep. of Computer Science, ETH Zürich"}},{"name":"Daoben Zhu","id":"548c6f70dabfae8a11fb4b42","location":{"lng":"116.3218607","lat":"39.9895058","country":"China","area":"Beijing","city":"0","univ-or-org":"中国科学院化学研究所"}},{"name":"Thomas E. Anderson","id":"5486f31ddabfae8a11fb34d8","location":{"lng":"-122.3058022","lat":"47.6532255","country":"United States","area":"Washington","city":"2992","univ-or-org":"Computer Science and Engineering,University of Washington"}},{"name":"Zhong Lin Wang","id":"54862f80dabfae8a11fb3092","location":{"lng":"-84.40163380000001","lat":"33.7763623","country":"United States","area":"Georgia","city":"205","univ-or-org":"School of Materials Science and Engineering Georgia Institute of Technology"}},{"name":"Alessandro Moretta","id":"5485d70edabfaed7b5fa2552","location":{"lng":"8.9267336","lat":"44.4149149","country":"Italy","area":"Italy","city":"1118","univ-or-org":"University of Genoa"}},{"name":"Michael L. Klein","id":"5433457edabfaeb4c6ab37bd","location":{"lng":"-75.15535059999999","lat":"39.9811932","country":"United States","area":"Pennsylvania","city":"2575","univ-or-org":"Temple University"}},{"name":"Antonio Lanzavecchia","id":"53f63335dabfaef6ea9bf120","location":{"lng":"2.1181","lat":"41.3822262","country":"Spain","area":"Spain","city":"284","univ-or-org":"Institute for Research in Biomedicine"}},{"name":"Dieter Fox","id":"53f59e29dabfaef125f8045b","location":{"lng":"-122.3058022","lat":"47.6532255","country":"United States","area":"Washington","city":"2992","univ-or-org":"Department of Computer Science & Engineering at the University of Washington"}},{"name":"R. J. Ivison","id":"53f456c0dabfaee0d9bf588e","location":{"lng":"-3.188932","lat":"55.92285150000001","country":"United Kingdom","area":"United Kingdom","city":"964","univ-or-org":"Astronomy Technology Centre|Royal Observatory"}},{"name":"Michael E. Phelps","id":"53f43231dabfaec22ba55a25","location":{"lng":"-118.4451811","lat":"34.068921","country":"United States","area":"California","city":"1960","univ-or-org":"University of California,Los Angeles"}},{"name":"Richard M. Karp","id":"560817fc45cedb3396bfad58","location":{"lng":"-122.2585399","lat":"37.8718992","country":"United States","area":"California","city":"315","univ-or-org":"University of California,Berkeley"}},{"name":"Yuri S. Kivshar","id":"548e5bd2dabfaef989f09356","location":{"lng":"149.118527","lat":"-35.2776999","country":"Australia","area":"Australia","city":"580","univ-or-org":"The Australian National University"}},{"name":"Noga Alon","id":"548a0c6ddabfae9b40134ec5","location":{"lng":"34.8043877","lat":"32.1133141","country":"Israel","area":"Israel","city":"3282","univ-or-org":"Tel Aviv University"}},{"name":"Michael A. Moskowitz","id":"5486564fdabfae9b40133d1d","location":{"lng":"-71.06883049999999","lat":"42.3631763","country":"United States","area":"Massachusetts","city":"456","univ-or-org":"Neuroscience Center at Massachusetts General Hospital"}},{"name":"Donald G. York","id":"54483d40dabfae87b7df1133","location":{"lng":"-87.5987133","lat":"41.7886079","country":"United States","area":"Illinois","city":"669","univ-or-org":"University of Chicago(University of Chicago),Chicago,United States"}},{"name":"John Q. Trojanowski","id":"543502fedabfaebba588e8f5","location":{"lng":"-75.16375099999999","lat":"39.9573143","country":"United States","area":"Pennsylvania","city":"2575","univ-or-org":"Pathology and Laboratory Medicine,Perelman School of Medicine"}},{"name":"Richard A. Mathies","id":"543012f8dabfaeca69bc3b71","location":{"lng":"-122.2560283","lat":"37.873109","country":"United States","area":"California","city":"315","univ-or-org":"College of Chemistry，University of California"}},{"name":"Geoffrey W. Marcy","id":"540957c8dabfae8faa6837d5","location":{"lng":"-122.2585399","lat":"37.8718992","country":"United States","area":"California","city":"315","univ-or-org":"University of California Berkeley"}},{"name":"Dianne Neumark-Sztainer","id":"540871d7dabfae450f41af51","location":{"lng":"-93.2331609","lat":"44.9721714","country":"United States","area":"Delaware","city":"2161","univ-or-org":"School of Public Health, University of Minnesota"}},{"name":"Richard S. Ellis","id":"5405b74bdabfae91d300559c","location":{"lng":"-118.125269","lat":"34.1376576","country":"United States","area":"California","city":"2541","univ-or-org":"Caltech"}},{"name":"David A. Kass","id":"540573fadabfae8faa5d306c","location":{"lng":"-76.5933799","lat":"39.2992161","country":"United States","area":"Maryland","city":"258","univ-or-org":"Johns Hopkins Medical Institutions"}},{"name":"Eric Horvitz","id":"53f48d8bdabfaea7cd1d315a","location":{"lng":"-122.1369208","lat":"47.6424099","country":"United States","area":"Washington","city":"3548","univ-or-org":"Microsoft Research"}},{"name":"William A. Goddard","id":"53f4806edabfaee0d9c72fb8","location":{"lng":"-118.125269","lat":"34.1376576","country":"United States","area":"California","city":"2541","univ-or-org":"California Institute of Technology"}},{"name":"Marc A. Pfeffer","id":"53f43855dabfaeb2ac06511c","location":{"lng":"-71.1067067","lat":"42.3360887","country":"United States","area":"Massachusetts","city":"456","univ-or-org":"Brigham and Women's Hospital, Boston, MA, USA"}},{"name":"Peidong Yang","id":"53f436d4dabfaeb22f47556b","location":{"lng":"-122.2573506","lat":"37.8744131","country":"United States","area":"California","city":"315","univ-or-org":"Departments of Chemistry and Materials Science and Engineeing University of California,Berkeley"}},{"name":"B. Abbott","id":"54353355dabfaebba58b134c","location":{"lng":"-97.4457137","lat":"35.2058936","country":"United States","area":"Oklahoma","city":"2378","univ-or-org":"Dept. Physics & Astronomy The University of Oklahoma"}},{"name":"Daniel S. Pine","id":"54340950dabfaebba58389cd","location":{"lng":"77.5982643","lat":"12.9406819","country":"India","area":"India","city":"266","univ-or-org":"Neuroscience in the National Institute of Mental Health"}},{"name":"Giorgio Bernardi","id":"54327d23dabfaeb542157b02","location":{"lng":"12.5054904","lat":"41.9580221","country":"Italy","area":"Italy","city":"440","univ-or-org":"Dept. of Biology, Rome 3 University"}},{"name":"Clifford B. Saper","id":"543031abdabfaeca69bd4a9e","location":{"lng":"-71.1029949","lat":"42.3361312","country":"United States","area":"Massachusetts","city":"456","univ-or-org":"Neurology and Neuroscience,Harvard Medical School"}},{"name":"James L. Mcclelland","id":"540fd9dfdabfae450f4acf16","location":{"lng":"-79.9511218","lat":"40.4461179","country":"United States","area":"Pennsylvania","city":"2597","univ-or-org":"Center for the Neural Basis of Cognition, Pittsburgh"}},{"name":"Wolfram Burgard","id":"540698a2dabfae8faa612c32","location":{"lng":"7.833113200000001","lat":"48.0135817","country":"Germany","area":"Germany","city":"1059","univ-or-org":"Autonomous Intelligent Systems,University of Freiburg"}},{"name":"A. Morselli","id":"53fa0b77dabfae9060b674c3","location":{"lng":"12.4755015","lat":"41.8978719","country":"Italy","area":"Italy","city":"440","univ-or-org":"Istituto Nazionale di Fisica Nucleare"}},{"name":"Daniel Levy","id":"53f7c31bdabfae7f97a29082","location":{"lng":"-77.100911","lat":"39.0023443","country":"United States","area":"Maryland","city":"258","univ-or-org":"National Institutes of Health"}},{"name":"Fernando C. N. Pereira","id":"53f565c8dabfae61fff8045b","location":{"lng":"-9.1393457","lat":"38.7368464","country":"Portugal","area":"Portugal","city":"0","univ-or-org":"Instituto Superior Técnico - Instituto de Telecomunica??es"}},{"name":"Mani Srivastava","id":"53f556cddabfae963d25c58a","location":{"lng":"-123.2786904","lat":"44.56723059999999","country":"United States","area":"Oregon","city":"1011","univ-or-org":"Electrical Engineering Department   Computer Science Department"}},{"name":"Wei-Ying Ma","id":"53f48045dabfae963d2592f0","location":{"lng":"116.337004","lat":"39.977244","country":"China","area":"Beijing","city":"0","univ-or-org":"Microsoft Research Asia"}},{"name":"Maurizio Prato","id":"53f4644cdabfaeb22f53472c","location":{"lng":"13.7934477","lat":"45.658667","country":"Italy","area":"Italy","city":"3377","univ-or-org":"University of Trieste"}},{"name":"Adrian Furnham","id":"53f459fbdabfaee02ad664b1","location":{"lng":"-0.1340401","lat":"51.52455920000001","country":"United Kingdom","area":"United Kingdom","city":"1942","univ-or-org":"Department of Psychology|University College London"}},{"name":"Jay Belsky","id":"53f43429dabfaee02acb45f3","location":{"lng":"-0.130462","lat":"51.521975","country":"United Kingdom","area":"United Kingdom","city":"1942","univ-or-org":"Birkbeck University of London"}},{"name":"Joseph E. Ledoux","id":"53f42dc2dabfaedce54ca24d","location":{"lng":"-73.9962954","lat":"40.7315991","country":"United States","area":"New York","city":"2333","univ-or-org":"Center for Neural Science,New York University"}},{"name":"Michael P. Lisanti","id":"53f42c62dabfaec09f105e3d","location":{"lng":"-73.8443938","lat":"40.8521451","country":"United States","area":"New York","city":"2333","univ-or-org":"Department of Molecular Pharmacology, Albert Einstein College of Medicine, Bronx, New York 10461"}},{"name":"Ronald Rivest","id":"53f42a3edabfaeb2acfbac0b","location":{"lng":"-71.0905626","lat":"42.3618641","country":"United States","area":"Massachusetts","city":"523","univ-or-org":"Laboratory for Computer Science,Massachusetts Institute of Technology"}},{"name":"C. Favuzzi","id":"53f3791cdabfae4b349dbfe3","location":{"lng":"16.8839935","lat":"41.1084008","country":"Italy","area":"Italy","city":"288","univ-or-org":"Dipartimento Interateneo di Fisica dell'Università e del Politecnico"}},{"name":"Edward Giovannucci","id":"5487336fdabfae9b40134358","location":{"lng":"-83.7302902","lat":"42.2806797","country":"United States","area":"Michigan","city":"142","univ-or-org":"Department of Nutrition Department of Epidemiology"}},{"name":"Tomas Ganz","id":"5486974adabfaed7b5fa2a7b","location":{"lng":"-93.23162909999999","lat":"44.9723337","country":"United States","area":"Delaware","city":"2161","univ-or-org":"Department of Medicine"}},{"name":"Vincenzo Di Marzo","id":"54867f95dabfae9b40133e9e","location":{"lng":"15.08598","lat":"37.528849","country":"Italy","area":"Italy","city":"616","univ-or-org":"Istituto di Chimica Biomolecolare, Consiglio Nazionale delle Ricerche"}},{"name":"Nicholas Ayache","id":"54860c66dabfaed7b5fa2717","location":{"lng":"7.068379999999999","lat":"43.6158131","country":"France","area":"France","city":"2352","univ-or-org":"INRIA Sophia Antipolis"}},{"name":"Dennis P. Lettenmaier","id":"54859fefdabfae9b401338b2","location":{"lng":"-118.4451811","lat":"34.068921","country":"United States","area":"California","city":"1960","univ-or-org":"University of California, Los Angeles"}},{"name":"Richard L. Huganir","id":"5484cd23dabfae9b40133153","location":{"lng":"-76.5933799","lat":"39.2992161","country":"United States","area":"Maryland","city":"258","univ-or-org":"The Johns Hopkins University,School of Medicine"}},{"name":"Dawn Song","id":"5448439adabfae87b7df890e","location":{"lng":"-122.2585399","lat":"37.8718992","country":"United States","area":"California","city":"315","univ-or-org":"Department of Electrical Engineering and Computer Science at UC Berkeley"}},{"name":"Francis S. Collins","id":"54353a8edabfaebba58b6687","location":{"lng":"-83.7346894","lat":"42.2836049","country":"United States","area":"Michigan","city":"142","univ-or-org":"Department of Human Genetics, University of Michigan, Ann Arbor, Michigan 48109 USA"}},{"name":"Ian Smail","id":"543138c3dabfae8f29139869","location":{"lng":"-78.898619","lat":"35.9940329","country":"United States","area":"North Carolina","city":"946","univ-or-org":"Durham"}},{"name":"T. W. Robbins","id":"54096968dabfae450f481d72","location":{"lng":"0.123097","lat":"52.20147490000001","country":"United Kingdom","area":"United Kingdom","city":"0","univ-or-org":"Department of Psychology Behavioural and Clinical Neuroscience Institute"}},{"name":"H. Vincent Poor","id":"54055927dabfae8faa5c5dfa","location":{"lng":"-74.65157099999999","lat":"40.350553","country":"United States","area":"New Jersey","city":"1249","univ-or-org":"School of Engineering and Applied Science,Princeton University"}},{"name":"Mubarak Shah","id":"53f7f062dabfae92b40f5df4","location":{"lng":"-81.2000599","lat":"28.6024274","country":"United States","area":"Florida","city":"2463","univ-or-org":"CRCV,Center for Research in Computer Vision,University of Central Florida"}},{"name":"Ruth Nussinov","id":"53f7e9ecdabfae9467dbf518","location":{"lng":"34.8043877","lat":"32.1133141","country":"Israel","area":"Israel","city":"3282","univ-or-org":"Tel Aviv University"}},{"name":"Yang Cao","id":"53f7cc78dabfae7f97a2bb36","location":{"lng":"151.2312675","lat":"-33.917347","country":"Australia","area":"Australia","city":"3198","univ-or-org":"The University of New South Wales"}},{"name":"Eugene C. Butcher","id":"53f633a1dabfaef7079bf12d","location":{"lng":"-122.1726547","lat":"37.4264399","country":"United States","area":"California","city":"2883","univ-or-org":"Department of Pathology|Stanford University"}},{"name":"Ruben C. Gur","id":"53f57534dabfae7dbbf8045b","location":{"lng":"-75.19259799999999","lat":"39.9476279","country":"United States","area":"Pennsylvania","city":"2575","univ-or-org":"the Brain Behavior Laboratory, and the Center for Neuroimaging in Psychiatry"}},{"name":"David R. Karger","id":"53f556dfdabfae963d25f8ef","location":{"lng":"-71.0905626","lat":"42.3618641","country":"United States","area":"Massachusetts","city":"523","univ-or-org":"MIT,Computer Science and Artificial Intelligence Laboratory"}},{"name":"Edward C. Holmes","id":"53f4bc60dabfaedaa177b494","location":{"lng":"150.99096","lat":"-33.803415","country":"Australia","area":"Australia","city":"3198","univ-or-org":"The Westmead Institute for Medical Research, Sydney, Australia"}},{"name":"David B. Audretsch","id":"53f4bc23dabfaeda9d77b895","location":{"lng":"13.3650865","lat":"52.5063971","country":"Germany","area":"Germany","city":"373","univ-or-org":"Wissenschaftszentrum Berlin für Sozialforschung Berlin Germany"}},{"name":"Dinesh Manocha","id":"53f4b7d7dabfaed4ae77b475","location":{"lng":"-79.0469134","lat":"35.9049122","country":"United States","area":"North Carolina","city":"524","univ-or-org":"University of North Carolina at Chapel Hill"}},{"name":"Rajeev Motwani","id":"53f4afeddabfaedd74eb950c","location":{"lng":"-122.1733617","lat":"37.4300473","country":"United States","area":"California","city":"2883","univ-or-org":"Computer Science Department,Stanford University"}},{"name":"John Mylopoulos","id":"53f4ae26dabfaee0d9c771a0","location":{"lng":"-79.3969707","lat":"43.6590717","country":"Canada","area":"Canada","city":"2449","univ-or-org":"Department of Computer Science  University of Toronto"}},{"name":"C. Lee Giles","id":"53f4977bdabfaee1c0bad7f1","location":{"lng":"-77.868123","lat":"40.793678","country":"United States","area":"Pennsylvania","city":"256","univ-or-org":"College of Information Sciences and Technology, The Pennsylvania State University"}},{"name":"Peter G. Schultz","id":"53f493aadabfaeb22f5720c4","location":{"lng":"-117.242208","lat":"32.894423","country":"United States","area":"California","city":"2878","univ-or-org":"The Scripps Research Institute"}},{"name":"Cordelia Schmid","id":"53f48db1dabfaea88d77b696","location":{"lng":"4.8797456","lat":"45.7862471","country":"France","area":"France","city":"3507","univ-or-org":"INRIA"}},{"name":"Trevor Hastie","id":"53f48c61dabfaea7cd1ce7ad","location":{"lng":"-122.1720626","lat":"37.4289605","country":"United States","area":"California","city":"2883","univ-or-org":"Department of Statistics,Stanford University"}},{"name":"Steven L. Salzberg","id":"53f479f5dabfae8a6845cc9d","location":{"lng":"-76.9377252","lat":"38.99284979999999","country":"United States","area":"Maryland","city":"258","univ-or-org":"Center for Bioinformatics and Computational Biology  Department of Computer Science  University of Maryland"}},{"name":"Michele Parrinello","id":"53f44c08dabfaee4dc7e83c2","location":{"lng":"8.547669899999999","lat":"47.376313","country":"Switzerland","area":"Switzerland","city":"3747","univ-or-org":"ETH Zurich"}},{"name":"T. Lohse","id":"53f44917dabfaee1c0af7f3a","location":{"lng":"13.5301266","lat":"52.43326159999999","country":"Germany","area":"Germany","city":"373","univ-or-org":"Humboldt-Universit?t zu Berlin Institut für Physik"}},{"name":"Jeffrey A. Hubbell","id":"53f447a6dabfaee02ad1ddc0","location":{"lng":"-87.5987133","lat":"41.7886079","country":"United States","area":"Illinois","city":"669","univ-or-org":"The University of Chicago"}},{"name":"Tim D. Spector","id":"53f44173dabfaedf435bd62a","location":{"lng":"-0.115997","lat":"51.5114864","country":"United Kingdom","area":"United Kingdom","city":"1942","univ-or-org":"King's College London"}},{"name":"John C. Wingfield","id":"53f438a0dabfaeee229bffed","location":{"lng":"-122.3105578","lat":"47.6526728","country":"United States","area":"Washington","city":"2992","univ-or-org":"Department of Biology, University of Washington"}},{"name":"Benjamin B. Lahey","id":"53f42d47dabfaeb2acfe8c9d","location":{"lng":"-87.6041865","lat":"41.788249","country":"United States","area":"Maryland","city":"669","univ-or-org":"Department of Public Health Sciences, The University of Chicago"}},{"name":"P. Morettini","id":"53f42b9cdabfaeb2acfce389","location":{"lng":"8.9716459","lat":"44.4028594","country":"Italy","area":"Italy","city":"1118","univ-or-org":"Dipartimento di Fisica Università di Genova and INFN Via Dodecaneso 33 I-16146 Genova Italy"}},{"name":"Neta A. Bahcall","id":"548d7621dabfaed7b5fa48b9","location":{"lng":"-74.6514481","lat":"40.3439888","country":"United States","area":"New Jersey","city":"1249","univ-or-org":"Princeton University"}},{"name":"Kenneth A. Dodge","id":"548a4727dabfaed7b5fa407a","location":{"lng":"-78.9382286","lat":"36.0014258","country":"United States","area":"North Carolina","city":"946","univ-or-org":"Duke University"}},{"name":"Mark M. Davis","id":"548871dadabfaed7b5fa3862","location":{"lng":"-122.175758","lat":"37.4318102","country":"United States","area":"California","city":"2883","univ-or-org":"Department of Microbiology and Immunology,Stanford University"}},{"name":"Dinshaw J. Patel","id":"54881809dabfae8a11fb40a2","location":{"lng":"113.998117","lat":"22.5943483","country":"China","area":"Guangdong","city":"1953","univ-or-org":"Department of Biology,South University of Science and Technology of China"}},{"name":"Martin Vetterli","id":"54872548dabfae9b40134291","location":{"lng":"6.5667576","lat":"46.5190557","country":"Switzerland","area":"Switzerland","city":"1862","univ-or-org":"école Polytechnique Federale of Lausanne"}},{"name":"Bruce S. Mcewen","id":"544801ccdabfae87b7dc1104","location":{"lng":"-73.9556889","lat":"40.7625706","country":"United States","area":"New York","city":"2333","univ-or-org":"Laboratory of Neuroendocrinology,Rockefeller University"}},{"name":"Hediye Erdjument-Bromage","id":"54410a5edabfae7d84bd7c38","location":{"lng":"-73.63314","lat":"40.687898","country":"United States","area":"New York","city":"2333","univ-or-org":"Memorial Sloan-Kettering Cancer Center"}},{"name":"Robert C. Nichol","id":"5440aaa7dabfae7d84b9ee16","location":{"lng":"-1.098163","lat":"50.797601","country":"United Kingdom","area":"United Kingdom","city":"421","univ-or-org":"Institute of Cosmology and Gravitation|University of Portsmouth"}},{"name":"Rand D. Conger","id":"543507f1dabfaebba589212d","location":{"lng":"-117.2340135","lat":"32.8800604","country":"United States","area":"California","city":"702","univ-or-org":"University of California"}},{"name":"Martti Raidal","id":"5433f3d9dabfaebba5831c68","location":{"lng":"24.6595403","lat":"59.39887899999999","country":"Estonia","area":"Estonia","city":"3240","univ-or-org":"National Institute of Chemical Physics and Biophysics"}},{"name":"Steven G. Louie","id":"54332f5cdabfaeb54217a459","location":{"lng":"-122.257256","lat":"37.8725797","country":"United States","area":"California","city":"315","univ-or-org":"University of California at Berkeley,Department of Physics"}},{"name":"David Altshuler","id":"54325fe9dabfaeb4c6a80d4e","location":{"lng":"-71.0662122","lat":"42.3622211","country":"United States","area":"Massachusetts","city":"456","univ-or-org":"Department of Molecular Biology,Massachusetts General Hospital"}},{"name":"Shelley E. Taylor","id":"54315132dabfae8f29144132","location":{"lng":"-118.4451811","lat":"34.068921","country":"United States","area":"California","city":"1960","univ-or-org":"University of California ,Los Angeles"}},{"name":"A. J. Heeger","id":"5406c772dabfae44f085a71f","location":{"lng":"-119.8433349","lat":"34.4154494","country":"United States","area":"California","city":"2934","univ-or-org":"Center for Polymers and Organic Solids|"}},{"name":"Timothy R. Billiar","id":"54055565dabfae91d3fd5f35","location":{"lng":"-80.06559750000001","lat":"40.5340116","country":"United States","area":"Ohio","city":"2597","univ-or-org":"University of Pittsburgh,Medical Center"}},{"name":"Elio Riboli","id":"53f7b435dabfae8faa4aa1d6","location":{"lng":"-0.1748772","lat":"51.49879970000001","country":"United Kingdom","area":"United Kingdom","city":"1942","univ-or-org":"Imperial College, London"}},{"name":"Gene Tsudik","id":"53f561f3dabfae5c83f8045b","location":{"lng":"-117.841988","lat":"33.64316","country":"United States","area":"California","city":"1444","univ-or-org":"Computer Science Department,University of California"}},{"name":"Trevor Darrell","id":"53f556d3dabfae963d25d9b3","location":{"lng":"-122.2585399","lat":"37.8718992","country":"United States","area":"California","city":"315","univ-or-org":"UC Berkeley EECS"}},{"name":"William T. Freeman","id":"53f4bb5adabfaeda9d77b78a","location":{"lng":"-71.09256409999999","lat":"42.3608876","country":"United States","area":"Massachusetts","city":"523","univ-or-org":"Electrical Engineering and Computer Science at MIT"}},{"name":"Stephen Boyd","id":"53f49fb5dabfaeb22f573635","location":{"lng":"-122.1743033","lat":"37.4277221","country":"United States","area":"California","city":"123","univ-or-org":"Department of Computer Science Institute for Computational and Mathematical Engineering Stanford University"}},{"name":"G. Dresselhaus","id":"53f4983cdabfaeb6d277b806","location":{"lng":"-71.0976222","lat":"42.3597481","country":"United States","area":"Massachusetts","city":"523","univ-or-org":"Francis Bitter Magnet Laboratory, Massachusetts Institute of Technology, Cambridge, MA 02139-4307, USA"}},{"name":"Rafi Ahmed","id":"53f4580edabfaedf43611fa5","location":{"lng":"-84.32399889999999","lat":"33.7925195","country":"United States","area":"Georgia","city":"205","univ-or-org":"Department of Microbiology and Immunology,Emory University"}},{"name":"Frances H. Arnold","id":"53f44702dabfaeee229f9cfe","location":{"lng":"-118.125269","lat":"34.1376576","country":"United States","area":"California","city":"2541","univ-or-org":"California Institute of Technology"}},{"name":"Lance A. Liotta","id":"53f43b21dabfaec09f1ab1f3","location":{"lng":"-77.3626128","lat":"39.4388008","country":"United States","area":"Maryland","city":"258","univ-or-org":"Laboratory of Pathology|National Cancer Institute"}},{"name":"Michael J. Franklin","id":"53f43605dabfaedce552be3f","location":{"lng":"-122.2590219","lat":"37.8738176","country":"United States","area":"California","city":"315","univ-or-org":"UC Berkeley Berkeley Engineering"}},{"name":"Randy L. Buckner","id":"53f4350edabfaee1c0a91dd2","location":{"lng":"-71.11666009999999","lat":"42.3770029","country":"United States","area":"Massachusetts","city":"523","univ-or-org":"Harvard University"}},{"name":"Michael P. Sheetz","id":"53f4314cdabfaee4dc74b3f1","location":{"lng":"-73.9625727","lat":"40.8075355","country":"United States","area":"New York","city":"2333","univ-or-org":"Columbia University"}},{"name":"Rolf Loeber","id":"53f42f67dabfaeb1a7ba4efa","location":{"lng":"-79.9596871","lat":"40.4436262","country":"United States","area":"Pennsylvania","city":"2597","univ-or-org":"Department of Psychiatry at the University of Pittsburgh School of Medicine"}},{"name":"Andrew Mccallum","id":"53f42ed2dabfaedd74d496dc","location":{"lng":"-72.531313","lat":"42.39508","country":"United States","area":"Massachusetts","city":"2174","univ-or-org":"Department of Computer Science,University of Massachusetts Amherst"}},{"name":"William F. Degrado","id":"53f427e8dabfaeb1a7b5c76e","location":{"lng":"-122.4575489","lat":"37.7631333","country":"United States","area":"California","city":"2882","univ-or-org":"University of California,San Francisco"}},{"name":"Ernst Fehr","id":"53f393eddabfae4b34a66056","location":{"lng":"8.550014","lat":"47.3729108","country":"Switzerland","area":"Switzerland","city":"3747","univ-or-org":"Department of Economics at the University of Zürich"}},{"name":"Francis V. Chisari","id":"53f3283bdabfae9a8447dccb","location":{"lng":"-117.242208","lat":"32.894423","country":"United States","area":"California","city":"2878","univ-or-org":"Department of Molecular and Experimental Medicine,The Scripps Research Institute,"}},{"name":"Richard G. Pestell","id":"548c9757dabfae8a11fb4be9","location":{"lng":"-75.15595309999999","lat":"39.9489094","country":"United States","area":"Pennsylvania","city":"2575","univ-or-org":"Thomas Jefferson University"}},{"name":"David J. Schlegel","id":"548a3175dabfae9b40134ff9","location":{"lng":"-74.6516625","lat":"40.3465565","country":"United States","area":"New Jersey","city":"1249","univ-or-org":"Princeton University Observatory"}},{"name":"Hermann Ney","id":"54898a15dabfaed7b5fa3cce","location":{"lng":"6.065686899999999","lat":"50.7800778","country":"Germany","area":"Germany","city":"1","univ-or-org":"RWTH Aachen University"}},{"name":"Raquel E. Gur","id":"548656b6dabfae8a11fb31b8","location":{"lng":"-75.19259799999999","lat":"39.9476279","country":"United States","area":"Pennsylvania","city":"2575","univ-or-org":"Department of Psychiatry University of Pennsylvania"}},{"name":"Peter C. Burger","id":"544060c6dabfae805a6b6645","location":{"lng":"-76.6205177","lat":"39.3299013","country":"United States","area":"Maryland","city":"258","univ-or-org":"Johns Hopkins University"}},{"name":"Eleftherios P. Diamandis","id":"5435423bdabfaebba58bc000","location":{"lng":"-79.39565640000001","lat":"43.6628917","country":"Canada","area":"Canada","city":"2449","univ-or-org":"University of Toronto"}},{"name":"Phaedon Avouris","id":"54302c9bdabfaeca69bd1f6c","location":{"lng":"-73.8026467","lat":"41.2097516","country":"United States","area":"New York","city":"2333","univ-or-org":"IBM Research Division|T. J. Watson Research Center"}},{"name":"Yuehe Lin","id":"54084253dabfae92b4236a84","location":{"lng":"-119.2797231","lat":"46.345205","country":"United States","area":"Washington","city":"3548","univ-or-org":"Pacific Northwest National Laboratory(Pacific Northwest National Laboratory,Pac. Northwest National Laboratory,Pacific Northwest Laboratory),Richland,United States"}},{"name":"Ashoke Sen","id":"5405eceddabfae91d301ceb6","location":{"lng":"81.9091437","lat":"25.4111131","country":"India","area":"India","city":"92","univ-or-org":"Harish-Chandra Research Institute"}},{"name":"Michael R. Stratton","id":"54057b4fdabfae91d3fe864b","location":{"lng":"0.1855874","lat":"52.0797171","country":"United Kingdom","area":"United Kingdom","city":"421","univ-or-org":"Wellcome Trust Sanger Institute"}},{"name":"Gunnar Von Heijne","id":"53f7b3b7dabfae938c6d1566","location":{"lng":"-96.34908809999999","lat":"30.6107307","country":"United States","area":"Texas","city":"1171","univ-or-org":"Department of Biochemistry and Biophysics"}},{"name":"Richard E. Tremblay","id":"53f5b66bdabfae4c07f8045b","location":{"lng":"-73.61375919999999","lat":"45.5056156","country":"Canada","area":"Canada","city":"2694","univ-or-org":"Université de Montréal"}},{"name":"Susan T. Dumais","id":"53f4ba83dabfaed83c77b54f","location":{"lng":"-122.1407465","lat":"47.64183920000001","country":"United States","area":"Washington","city":"3548","univ-or-org":"Microsoft Research Lab,Redmond"}},{"name":"Moni Naor","id":"53f4a1d2dabfaee0d9c75bc2","location":{"lng":"34.8080315","lat":"31.90375409999999","country":"Israel","area":"Israel","city":"2747","univ-or-org":"Dept. Computer Science and Applied Mathematics,Weizmann Institute of Science"}},{"name":"Elisa Bertino","id":"53f48beadabfaea7cd1cd616","location":{"lng":"-86.91699160000002","lat":"40.4277295","country":"United States","area":"Indiana","city":"1428","univ-or-org":"Department of Computer Science,Purdue University"}},{"name":"Joseph  Halpern","id":"53f452bedabfaee1c0b1ee4a","location":{"lng":"-76.4735027","lat":"42.4534492","country":"United States","area":"New York","city":"2333","univ-or-org":"Computer Science Department,Cornell University"}},{"name":"Niels Birbaumer","id":"53f43a7fdabfaee2a1d0db13","location":{"lng":"11.8774462","lat":"45.406766","country":"Italy","area":"Italy","city":"1901","univ-or-org":"Universita degli Studi, Padova, Italy"}},{"name":"Lex M. Bouter","id":"53f437afdabfaedce553af1e","location":{"lng":"4.8657199","lat":"52.3337568","country":"Netherlands","area":"Netherlands","city":"122","univ-or-org":"VU University Amsterdam."}},{"name":"Detlef Weigel","id":"53f432f5dabfaeee229871bb","location":{"lng":"9.0569927","lat":"48.5368478","country":"Germany","area":"Germany","city":"1059","univ-or-org":"Max Planck Institute for Developmental Biology"}},{"name":"P. Hanke","id":"53f42bd6dabfaee02ac49242","location":{"lng":"6.160044999999999","lat":"45.92109000000001","country":"France","area":"France","city":"3507","univ-or-org":"Laboratoire de Physique des Particules (LAPP), IN2P3-CNRS, F-74019 Annecy-le-Vieux Cedex, France"}},{"name":"Robert N. Weinreb","id":"548cf670dabfae8a11fb4dc9","location":{"lng":"-117.2225209","lat":"32.8791395","country":"United States","area":"California","city":"2878","univ-or-org":"Hamilton Glaucoma Center"}},{"name":"Robert W. Mccarley","id":"548a6d2adabfae8a11fb4a99","location":{"lng":"-71.1041786","lat":"42.3356352","country":"United States","area":"Massachusetts","city":"456","univ-or-org":"Harvard Medical School,Department of Psychiatry, VA Boston Healthcare System"}},{"name":"Stanley Osher","id":"5489c380dabfae9b40134d8c","location":{"lng":"-118.4451811","lat":"34.068921","country":"United States","area":"California","city":"1960","univ-or-org":"University of California, Los Angeles"}},{"name":"John H. Seinfeld","id":"54874c8adabfae9b401344e5","location":{"lng":"-118.125269","lat":"34.1376576","country":"United States","area":"California","city":"2541","univ-or-org":"California Institute of Technology"}},{"name":"Lewis H. Kuller","id":"5486e3f4dabfaed7b5fa2cb4","location":{"lng":"-79.9584169","lat":"40.4428588","country":"United States","area":"Pennsylvania","city":"2597","univ-or-org":"Department of Epidemiology at the University of Pittsburgh Graduate School of Public Health"}},{"name":"Lihong V. Wang","id":"54860d90dabfae8a11fb2f31","location":{"lng":"-90.31079620000001","lat":"38.6487895","country":"United States","area":"Missouri","city":"2838","univ-or-org":"Washington University in St. Louis"}},{"name":"David P. Farrington","id":"5485c833dabfae8a11fb2ba9","location":{"lng":"0.1099371","lat":"52.201465","country":"United Kingdom","area":"United Kingdom","city":"571","univ-or-org":"Institute of Criminology, Cambridge University"}},{"name":"Leonardo G. Cohen","id":"5484c1bddabfae9b4013312e","location":{"lng":"-77.100911","lat":"39.0023443","country":"United States","area":"Maryland","city":"258","univ-or-org":"Human Cortical Physiology Section, NINDS, National Institutes of Health"}},{"name":"Anthony S. Fauci","id":"5448a76fdabfae87b7e5ac64","location":{"lng":"-77.100911","lat":"39.0023443","country":"United States","area":"Maryland","city":"258","univ-or-org":"National Institutes of Health"}},{"name":"Kalyanmoy Deb","id":"54484da3dabfae87b7e038be","location":{"lng":"-84.4821719","lat":"42.701848","country":"United States","area":"Michigan","city":"142","univ-or-org":"Michigan State University"}},{"name":"Joel Schwartz","id":"54481e2fdabfae87b7dda976","location":{"lng":"-72.932118","lat":"41.3037199","country":"United States","area":"Connecticut","city":"2330","univ-or-org":"Department of Environmental Health Department of Epidemiology"}},{"name":"Elliott H. Lieb","id":"5447fde2dabfae87b7dbd61e","location":{"lng":"-74.6514481","lat":"40.3439888","country":"United States","area":"New Jersey","city":"1249","univ-or-org":"Princeton University"}},{"name":"Lei Jiang","id":"5444ca26dabfae87074e746a","location":{"lng":"116.3218607","lat":"39.9895058","country":"China","area":"Beijing","city":"0","univ-or-org":"中国科学院化学研究所"}},{"name":"Manfred T. Reetz","id":"54314fabdabfae8f29143abd","location":{"lng":"8.810895","lat":"50.8068182","country":"Germany","area":"Germany","city":"0","univ-or-org":"Philipps-Universit?t Marburg as external Group Leader of the Max-Planck-Institute"}},{"name":"Angela M. Gronenborn","id":"54084b96dabfae92b423a4d2","location":{"lng":"-79.960835","lat":"40.4443533","country":"United States","area":"Pennsylvania","city":"2597","univ-or-org":"University of Pittsburgh"}},{"name":"Rakesh K. Jain","id":"5406c81edabfae44f085ab93","location":{"lng":"-71.06883049999999","lat":"42.3631763","country":"United States","area":"Massachusetts","city":"456","univ-or-org":"Department of Radiation Oncology,Massachusetts General Hospital  Harvard Medical School"}},{"name":"Joseph R. Ecker","id":"5405636edabfae92b41ce2a7","location":{"lng":"-117.2453427","lat":"32.8873915","country":"United States","area":"California","city":"2878","univ-or-org":"Salk Institute for Biological Studies"}},{"name":"Murray B. Stein","id":"53fa033bdabfae9467e156af","location":{"lng":"-77.0947092","lat":"38.984652","country":"United States","area":"Maryland","city":"258","univ-or-org":"Bethesda, MDUSA"}},{"name":"Richard K. Wilson","id":"53f7e0ffdabfae938c6e67ba","location":{"lng":"-90.257137","lat":"38.6370598","country":"United States","area":"Missouri","city":"2838","univ-or-org":"Genome Sequencing Center|Washington University|School of Medicine"}},{"name":"Uzi Landman","id":"53f7d64edabfae9060aee463","location":{"lng":"-84.398753","lat":"33.777444","country":"United States","area":"Georgia","city":"205","univ-or-org":"School of Physics|Georgia Institute of Technology"}},{"name":"Charles Antzelevitch","id":"53f597c2dabfaee798f8045b","location":{"lng":"-75.191791","lat":"43.0875191","country":"United States","area":"New York","city":"2333","univ-or-org":"Masonic Medical Research Laboratory, Utica, New York"}},{"name":"Kristi S. Anseth","id":"53f4d55fdabfaeedd4783731","location":{"lng":"-105.2659417","lat":"40.00758099999999","country":"United States","area":"Colorado","city":"464","univ-or-org":"University of Colorado Boulder"}},{"name":"Solomon H. Snyder","id":"53f48630dabfaee4dc8b11ca","location":{"lng":"-76.5933799","lat":"39.2992161","country":"United States","area":"Maryland","city":"258","univ-or-org":"Johns Hopkins University School of Medicine"}},{"name":"Guillermo Sapiro","id":"53f48495dabfaeb22f570b87","location":{"lng":"-78.9382286","lat":"36.0014258","country":"United States","area":"North Carolina","city":"946","univ-or-org":"Duke University"}},{"name":"Masataka Fukugita","id":"53f477c6dabfaee02add9555","location":{"lng":"139.9386354","lat":"35.9024982","country":"Japan","area":"Japan","city":"667","univ-or-org":"Tokyo University Inst Cosmic Ray Res ICRR"}},{"name":"Jeffrey S. Moore","id":"53f464c6dabfaedd74e63675","location":{"lng":"-88.2260672","lat":"40.1084139","country":"United States","area":"Illinois","city":"669","univ-or-org":"Department of Chemistry University of Illinois"}},{"name":"Andrew C. Heath","id":"53f42f69dabfaee43ebdf022","location":{"lng":"-90.2648605","lat":"38.6365214","country":"United States","area":"Missouri","city":"2838","univ-or-org":"Department of Psychiatry|Washington University"}},{"name":"Martial H. Hebert","id":"53f42ddddabfaeb2acff091b","location":{"lng":"-79.94301279999999","lat":"40.4428081","country":"United States","area":"Pennsylvania","city":"2597","univ-or-org":"School of Computer Science,Carnegie Mellon University"}},{"name":"Steven P. Denbaars","id":"53f42da4dabfaee4dc71cf44","location":{"lng":"-119.848947","lat":"34.4139629","country":"United States","area":"California","city":"2934","univ-or-org":"University of California,Santa Barbara"}},{"name":"Arthur F. Kramer","id":"53f377b9dabfae4b349d7147","location":{"lng":"-88.22750239999999","lat":"40.115768","country":"United States","area":"Illinois","city":"669","univ-or-org":"Beckman Institute, University of Illinois"}},{"name":"Amin Vahdat","id":"548d8ba7dabfae8a11fb5062","location":{"lng":"-117.2340135","lat":"32.8800604","country":"United States","area":"California","city":"702","univ-or-org":"Google/UC San Diego"}},